site_name,,BCD,BNM,Cultural Venue Type,latitude,longitude
Reuters Archive,,E09000030,Tower Hamlets,Archives,51.50435142,-0.020429416
Whitechapel Art Gallery,,E09000030,Tower Hamlets,Archives,51.51614774,-0.070465394
Society for the Protection of Ancient Buildings,,E09000030,Tower Hamlets,Archives,51.52020003,-0.078467148
Lasa,,E09000030,Tower Hamlets,Archives,51.5170911,-0.070958811
Wilton's Music Hall,,E09000030,Tower Hamlets,Archives,51.51061305,-0.066937948
Wapping Police Station Museum,,E09000030,Tower Hamlets,Archives,51.50309221,-0.058596465
East London Mosque & London Muslim Centre Archive,,E09000030,Tower Hamlets,Archives,51.51746961,-0.065552047
Tower Hamlets Local History Library and Archives,,E09000030,Tower Hamlets,Archives,51.52381997,-0.042347199
V & A Museum of Childhood,,E09000030,Tower Hamlets,Archives,51.52905531,-0.054881955
Unfinished Histories,,E09000030,Tower Hamlets,Archives,51.52999312,-0.054495932
Matt's Gallery,,E09000030,Tower Hamlets,Archives,51.51907944,-0.03580472
Live Art Development Agency's Study Room,,E09000030,Tower Hamlets,Archives,51.54298591,-0.02211269
Historic Royal Palaces Architectural Drawings Archive,,E09000030,Tower Hamlets,Archives,51.50827523,-0.076245514
"Royal Armouries Library, Tower of London",,E09000030,Tower Hamlets,Archives,51.50827523,-0.076245514
Royal London Hospital Archives,,E09000030,Tower Hamlets,Archives,51.51160555,-0.070412426
Royal Fusiliers Museum,,E09000030,Tower Hamlets,Archives,51.50839276,-0.075188563
Lesbian and Gay Christian Movement,,E09000030,Tower Hamlets,Archives,51.52636805,-0.061484047
HSBC Group Archives,,E09000030,Tower Hamlets,Archives,51.50553219,-0.017395336
Crisis,,E09000030,Tower Hamlets,Archives,51.51811045,-0.073885005
"London University: Queen Mary, University of London",,E09000030,Tower Hamlets,Archives,51.52418885,-0.039664421
Royal College of Psychiatrists,,E09000030,Tower Hamlets,Archives,51.51141648,-0.071098355
Living Streets,,E09000030,Tower Hamlets,Archives,51.51708235,-0.070973594
Museum of London Docklands - Port and River Archive,,E09000030,Tower Hamlets,Archives,51.50769779,-0.023152002
Sainsbury Archive,,E09000030,Tower Hamlets,Archives,51.50769779,-0.023152002
Minority Rights Group,,E09000030,Tower Hamlets,Archives,51.51744496,-0.073336543
Working Mens College,,E09000007,Camden,Archives,51.53523862,-0.136029812
Wellcome Collection,,E09000007,Camden,Archives,51.52589757,-0.133917455
English National Opera Archive,,E09000007,Camden,Archives,51.54618942,-0.190460152
London University: UCL School of Slavonic and East European Studies,,E09000007,Camden,Archives,51.52532328,-0.131735287
Magistrates Association,,E09000007,Camden,Archives,51.52259699,-0.140697861
Freud Museum,,E09000007,Camden,Archives,51.54842189,-0.177246355
Keats House,,E09000007,Camden,Archives,51.55556976,-0.16793018
London University: Senate House Library,,E09000007,Camden,Archives,51.52064362,-0.128698024
London Mathematical Society,,E09000007,Camden,Archives,51.52117742,-0.124394946
London University: Institute of Modern Languages Research,,E09000007,Camden,Archives,51.52064362,-0.128698024
London University: Institute of Classical Studies,,E09000007,Camden,Archives,51.52064362,-0.128698024
London University: Institute of Commonwealth Studies,,E09000007,Camden,Archives,51.52064362,-0.128698024
Liberal Judaism archives,,E09000007,Camden,Archives,51.52243218,-0.137677393
Egypt Exploration Society,,E09000007,Camden,Archives,51.52315343,-0.116947449
General Conference of the New Church,,E09000007,Camden,Archives,51.51792235,-0.122727011
Swedenborg Society,,E09000007,Camden,Archives,51.51792235,-0.122727011
"British Library, Music Collections",,E09000007,Camden,Archives,51.52998677,-0.126988356
British Library Corporate Archives,,E09000007,Camden,Archives,51.52998677,-0.126988356
British Library: Asian and African Studies,,E09000007,Camden,Archives,51.52998677,-0.126988356
"British Library, Modern English and Reader Services, Humanities and Social Sciences",,E09000007,Camden,Archives,51.52998677,-0.126988356
"British Library, Sound Archive",,E09000007,Camden,Archives,51.52998677,-0.126988356
"British Library, Map Library",,E09000007,Camden,Archives,51.52998677,-0.126988356
"British Library, Manuscript Collections",,E09000007,Camden,Archives,51.52998677,-0.126988356
Mary Ward Centre,,E09000007,Camden,Archives,51.52086587,-0.12178428
Hon Soc of Gray's Inn: Archives,,E09000007,Camden,Archives,51.51927701,-0.112437215
Humanist Library and Archives,,E09000007,Camden,Archives,51.51979404,-0.118311294
National Secular Society,,E09000007,Camden,Archives,51.51979404,-0.118311294
Paul Mellon Centre for Studies in British Art,,E09000007,Camden,Archives,51.51957157,-0.130269899
Royal College of Anaesthetists,,E09000007,Camden,Archives,51.51943761,-0.119637687
University College London Hospitals NHS Foundation Trust,,E09000007,Camden,Archives,51.52573661,-0.137369511
English Folk Dance and Song Society: Vaughan Williams Memorial Library,,E09000007,Camden,Archives,51.53810212,-0.149337866
Hampstead Museum,,E09000007,Camden,Archives,51.5581809,-0.175067341
Highgate Literary and Scientific Institution,,E09000007,Camden,Archives,51.57018179,-0.14839595
Royal College of Physicians of London,,E09000007,Camden,Archives,51.52574929,-0.144980746
History of Parliament,,E09000007,Camden,Archives,51.51928304,-0.124025969
Camden Local Studies and Archives Centre,,E09000007,Camden,Archives,51.52118201,-0.115702644
"Jewish Museum, London (fomerly Finchley)",,E09000007,Camden,Archives,51.53728156,-0.144641468
"Jewish Museum, London",,E09000007,Camden,Archives,51.53728156,-0.144641468
Religious Society of Friends Library,,E09000007,Camden,Archives,51.5262991,-0.132589142
BT Archives,,E09000007,Camden,Archives,51.51761085,-0.116758156
Royal African Society,,E09000007,Camden,Archives,51.52235179,-0.129233406
London University: School of Oriental and African Studies (SOAS),,E09000007,Camden,Archives,51.52235179,-0.129233406
Law Centres Federation,,E09000007,Camden,Archives,51.52395509,-0.139575757
Charles Dickens Museum,,E09000007,Camden,Archives,51.52360065,-0.116237045
London University: Institute of Advanced Legal Studies,,E09000007,Camden,Archives,51.52248482,-0.127426054
Library and Museum of Freemasonry,,E09000007,Camden,Archives,51.51516268,-0.121110979
Federation of Master Builders,,E09000007,Camden,Archives,51.5216858,-0.116835035
Royal Asiatic Society,,E09000007,Camden,Archives,51.52650623,-0.135435119
German Historical Institute London,,E09000007,Camden,Archives,51.51890444,-0.123969462
London University: Institute of Education,,E09000007,Camden,Archives,51.52297862,-0.127939155
London University: Institute of Archaeology,,E09000007,Camden,Archives,51.52491681,-0.131622188
Royal Anthropological Institute of Great Britain and Ireland,,E09000007,Camden,Archives,51.52384191,-0.139811022
International Brewers Guild,,E09000007,Camden,Archives,51.51830308,-0.10724526
Royal College of Paediatrics and Child Health,,E09000007,Camden,Archives,51.52071748,-0.115894802
Art Workers Guild,,E09000007,Camden,Archives,51.5214067,-0.122987281
Chartered Institute of Library and Information Professionals (CILIP),,E09000007,Camden,Archives,51.52030934,-0.131421658
British Humanist Association,,E09000007,Camden,Archives,51.51979395,-0.130116644
Newman Association,,E09000007,Camden,Archives,51.52051425,-0.116119411
The Artangel Trust,,E09000007,Camden,Archives,51.52297249,-0.110727484
Faber Archive,,E09000007,Camden,Archives,51.51922382,-0.12425903
Friends of the Hebrew University of Jerusalem,,E09000007,Camden,Archives,51.53747892,-0.144042224
British Heart Foundation,,E09000007,Camden,Archives,51.53344266,-0.139592511
National Council of Building Materials Producers,,E09000007,Camden,Archives,51.51965513,-0.131563761
London University: Warburg Institute,,E09000007,Camden,Archives,51.52327321,-0.130622753
National Institute for Social Work,,E09000007,Camden,Archives,51.52526291,-0.127384112
University College School,,E09000007,Camden,Archives,51.55350825,-0.181082008
British Museum: Department of Ancient Egypt and Sudan,,E09000007,Camden,Archives,51.51936411,-0.126847821
British Museum: Department of the Ancient Near East,,E09000007,Camden,Archives,51.51936411,-0.126847821
British Museum: Department of Prints and Drawings,,E09000007,Camden,Archives,51.51936411,-0.126847821
British Museum: Department of Greek and Roman Antiquities,,E09000007,Camden,Archives,51.51936411,-0.126847821
"British Museum: Department of Britain, Europe and Prehistory",,E09000007,Camden,Archives,51.51936411,-0.126847821
British Museum Ethnography Library,,E09000007,Camden,Archives,51.51936411,-0.126847821
British Museum Central Archive,,E09000007,Camden,Archives,51.51936411,-0.126847821
Highgate Cemetery,,E09000007,Camden,Archives,51.56691029,-0.146797338
London University: London School of Hygiene and Tropical Medicine,,E09000007,Camden,Archives,51.52092672,-0.130661227
Great Ormond Street Hospital Archives,,E09000007,Camden,Archives,51.52221155,-0.11989817
National Association of University and College Union,,E09000007,Camden,Archives,51.53514553,-0.139797015
London University: Birkbeck College,,E09000007,Camden,Archives,51.52189271,-0.130333352
Lincoln's Inn Archives,,E09000007,Camden,Archives,51.51643182,-0.114457444
CAMLIS (Complimentary and Alternative Medicine Library and Information Service) Archive,,E09000007,Camden,Archives,51.52174058,-0.121373486
National Housing Federation,,E09000007,Camden,Archives,51.51844721,-0.119563184
Royal Academy of Dramatic Art,,E09000007,Camden,Archives,51.52088928,-0.13226279
Sir John Soane's Museum,,E09000007,Camden,Archives,51.51699356,-0.117518714
Central School of Speech and Drama,,E09000007,Camden,Archives,51.54432753,-0.174179507
Ben Uri Art Society and Gallery,,E09000007,Camden,Archives,51.5375408,-0.185367081
Huguenot Library,,E09000007,Camden,Archives,51.52357126,-0.132398065
London University: University College Department of Egyptology,,E09000007,Camden,Archives,51.52357126,-0.132398065
Jewish Studies Library,,E09000007,Camden,Archives,51.52357126,-0.132398065
The Wiener Library for the Study of the Holocaust and Genocide,,E09000007,Camden,Archives,51.52160317,-0.127966757
London University: Institute for the Study of the Americas,,E09000007,Camden,Archives,51.52484364,-0.129852027
Royal Free Hospital Medical Library,,E09000007,Camden,Archives,51.55298126,-0.166288788
British Olympic Association,,E09000007,Camden,Archives,51.52004232,-0.136117275
"University College London (UCL) Queen Square Library, Archive and Museum",,E09000007,Camden,Archives,51.52259388,-0.122433912
Folklore Society Archives,,E09000007,Camden,Archives,51.5248441,-0.13326858
London University: University College London (UCL) Special Collections,,E09000007,Camden,Archives,51.5248441,-0.13326858
British Film Institute (BFI) National Archive,,E09000007,Camden,Archives,51.51785121,-0.132920441
Dr Williams's Library,,E09000007,Camden,Archives,51.52393564,-0.131561459
Congregational Library,,E09000007,Camden,Archives,51.52393564,-0.131561459
University of the Arts London: Central St Martins College of Art and Design,,E09000007,Camden,Archives,51.53538581,-0.125512168
Royal College of General Practitioners,,E09000007,Camden,Archives,51.52653977,-0.134150684
The Guinness Partnership,,E09000007,Camden,Archives,51.52599671,-0.139593415
National League of the Blind and Disabled,,E09000007,Camden,Archives,51.52884842,-0.119350731
Architectural Association Archives,,E09000007,Camden,Archives,51.51853136,-0.131018802
National Childbirth Trust,,E09000009,Ealing,Archives,51.50593843,-0.269739395
Ealing Local History Centre,,E09000009,Ealing,Archives,51.51233212,-0.302370117
Catholic Union of Great Britain,,E09000013,Hammersmith and Fulha,Archives,51.50441554,-0.248918069
Latymer Upper School,,E09000013,Hammersmith and Fulha,Archives,51.49273648,-0.237063395
Polish Library POSK,,E09000013,Hammersmith and Fulha,Archives,51.49351545,-0.237436695
William Morris Society,,E09000013,Hammersmith and Fulha,Archives,51.49058179,-0.235504366
Rogers Stirk Harbour + Partners,,E09000013,Hammersmith and Fulha,Archives,51.48362317,-0.224294009
St Paul's Girls' School,,E09000013,Hammersmith and Fulha,Archives,51.4951319,-0.218833263
Hammersmith and Fulham Archives and Local History Centre,,E09000013,Hammersmith and Fulha,Archives,51.49458469,-0.223666292
The Nutrition Society,,E09000013,Hammersmith and Fulha,Archives,51.49533778,-0.22470308
Society for Psychical Research,,E09000013,Hammersmith and Fulha,Archives,51.49391403,-0.210309174
National Federation of Women's Institutes,,E09000013,Hammersmith and Fulha,Archives,51.47223329,-0.203871557
V&A Archive of Art and Design,,E09000013,Hammersmith and Fulha,Archives,51.49641388,-0.213841724
V&A Department of Theatre and Performance,,E09000013,Hammersmith and Fulha,Archives,51.49641388,-0.213841724
Harrods Archive,,E09000013,Hammersmith and Fulha,Archives,51.49454912,-0.213626532
Baring Archive,,E09000001,City and County of th,Archives,51.51551699,-0.089226292
LexisNexis Butterworths,,E09000001,City and County of th,Archives,51.51631266,-0.111522065
Employment Policy Institute,,E09000001,City and County of th,Archives,51.51506783,-0.075887122
Prudential Group Archives,,E09000001,City and County of th,Archives,51.51039098,-0.089040241
Chartered Insitute of Taxation,,E09000001,City and County of th,Archives,51.51520531,-0.110328375
Foreign and Commonwealth Office Library,,E09000001,City and County of th,Archives,51.51520531,-0.110328375
St Bride Library,,E09000001,City and County of th,Archives,51.51349205,-0.105023493
The Rothschild Archive,,E09000001,City and County of th,Archives,51.51231529,-0.089031735
Worshipful Society of Apothecaries,,E09000001,City and County of th,Archives,51.51289096,-0.102886619
Carpenters Company,,E09000001,City and County of th,Archives,51.51669821,-0.085936685
Clothworkers Company,,E09000001,City and County of th,Archives,51.51152987,-0.081138094
Drapers' Company,,E09000001,City and County of th,Archives,51.51523928,-0.0863582
Mercers' Company Archives,,E09000001,City and County of th,Archives,51.51416686,-0.091735853
Saddlers Company,,E09000001,City and County of th,Archives,51.51488611,-0.095597259
National Association of Citizens Advice Bureaux,,E09000001,City and County of th,Archives,51.51747107,-0.097507308
C Hoare & Co,,E09000001,City and County of th,Archives,51.51377693,-0.1096323
Leathersellers Company,,E09000001,City and County of th,Archives,51.51500491,-0.081543569
Lloyds Banking Group Archives (London),,E09000001,City and County of th,Archives,51.51876949,-0.080069711
Bishopsgate Institute,,E09000001,City and County of th,Archives,51.5187111,-0.079250559
City of London Club,,E09000001,City and County of th,Archives,51.5149871,-0.08468246
Schroder Archive,,E09000001,City and County of th,Archives,51.5160036,-0.095190298
Baltic Exchange,,E09000001,City and County of th,Archives,51.51497647,-0.08018605
Lloyd's,,E09000001,City and County of th,Archives,51.51301401,-0.082257511
Dr Johnson's House,,E09000001,City and County of th,Archives,51.51503546,-0.108159067
Royal Literary Fund,,E09000001,City and County of th,Archives,51.51480141,-0.108702042
City of London School,,E09000001,City and County of th,Archives,51.51102633,-0.099361206
Institute of Actuaries,,E09000001,City and County of th,Archives,51.51782273,-0.111371942
College of Arms,,E09000001,City and County of th,Archives,51.51223825,-0.098676614
City of London Police Museum,,E09000001,City and County of th,Archives,51.51667263,-0.093749855
Council for the Advancement of Arab-British Understanding,,E09000001,City and County of th,Archives,51.51514167,-0.108053774
Mission to Seafarers,,E09000001,City and County of th,Archives,51.51118565,-0.092004606
Museum of London Library,,E09000001,City and County of th,Archives,51.5177984,-0.096066695
Bank of England Archive,,E09000001,City and County of th,Archives,51.51418809,-0.088621829
Stationers Company,,E09000001,City and County of th,Archives,51.51428045,-0.101502905
Institute of Chartered Accountants in England and Wales,,E09000001,City and County of th,Archives,51.51639409,-0.088241168
St Bartholomew's Hospital Archives,,E09000001,City and County of th,Archives,51.51775143,-0.100378378
Barbers Company,,E09000001,City and County of th,Archives,51.5180174,-0.094601756
Lloyd's Register Foundation Heritage & Education Centre,,E09000001,City and County of th,Archives,51.51250665,-0.078733423
National Council for Housing and Planning,,E09000001,City and County of th,Archives,51.51031626,-0.084460529
Royal Town Planning Institute,,E09000001,City and County of th,Archives,51.51031626,-0.084460529
Salters Company,,E09000001,City and County of th,Archives,51.51823014,-0.092200156
"St Paul's Cathedral, Architectural Archive",,E09000001,City and County of th,Archives,51.51430322,-0.099022976
Inner Temple Library,,E09000001,City and County of th,Archives,51.51291913,-0.109644767
Inner Temple Archives,,E09000001,City and County of th,Archives,51.51279865,-0.109981236
Goldsmiths Company,,E09000001,City and County of th,Archives,51.51589613,-0.095771311
British Red Cross Museum and Archives,,E09000001,City and County of th,Archives,51.51908359,-0.08858643
Middle Temple Library,,E09000001,City and County of th,Archives,51.51189777,-0.110998545
Fishmongers Company,,E09000001,City and County of th,Archives,51.50935936,-0.087541437
All Hallows by the Tower,,E09000001,City and County of th,Archives,51.50933062,-0.079184156
"Friars Minor, English Province Archives",,E09000025,Newham,Archives,51.53951262,0.024906099
Franciscan Archives English Province,,E09000025,Newham,Archives,51.53951262,0.024906099
Newham Archive and Local Studies Library,,E09000025,Newham,Archives,51.54277052,0.004355963
Mind for Better Mental Health,,E09000025,Newham,Archives,51.54023648,0.001086514
Movement for Christian Democracy,,E09000025,Newham,Archives,51.51524569,0.013149883
University of East London: Library and Learning Centre,,E09000025,Newham,Archives,51.50748597,0.064786409
"Theatre Royal, Stratford East",,E09000025,Newham,Archives,51.54255806,0.001000881
Royal Medical Benevolent Fund,,E09000024,Merton,Archives,51.42115468,-0.201544771
University of the Arts London: Wimbledon College of Art,,E09000024,Merton,Archives,51.41350764,-0.21213045
Wimbledon Society Museum of Local History,,E09000024,Merton,Archives,51.42361787,-0.216205974
Royal British Nurses Association,,E09000024,Merton,Archives,51.38293674,-0.215506154
Wimbledon Lawn Tennis Museum: Kenneth Ritchie Wimbledon Library,,E09000024,Merton,Archives,51.43449072,-0.2144734
University of Roehampton: Archives and Special Collections,,E09000032,Wandsworth,Archives,51.45736039,-0.244932558
De Morgan Centre,,E09000032,Wandsworth,Archives,51.45713641,-0.200476777
Wandsworth Museum,,E09000032,Wandsworth,Archives,51.45713641,-0.200476777
Book Trust,,E09000032,Wandsworth,Archives,51.45797137,-0.184048133
Foster + Partners,,E09000032,Wandsworth,Archives,51.48076694,-0.168381317
Shaftesbury Young People,,E09000032,Wandsworth,Archives,51.45349738,-0.17390549
University of Roehampton: Southlands College Archives,,E09000032,Wandsworth,Archives,51.45954775,-0.244474421
"Queen Mary's Hospital, Roehampton",,E09000032,Wandsworth,Archives,51.45554949,-0.241705797
Wandsworth Heritage Service,,E09000032,Wandsworth,Archives,51.4640283,-0.164141817
Royal Academy of Dance: Philip Richardson Library,,E09000032,Wandsworth,Archives,51.47430671,-0.17507667
Franco-British Society,,E09000032,Wandsworth,Archives,51.47225363,-0.163379903
Emanuel School,,E09000032,Wandsworth,Archives,51.45665326,-0.173290163
"St George's Archives and Special Collections, University of London",,E09000032,Wandsworth,Archives,51.42729284,-0.174518631
Leo Baeck College Library,,E09000003,Barnet,Archives,51.59527665,-0.189326369
"Royal Air Force Museum, Department of Research and Information Services",,E09000003,Barnet,Archives,51.59894703,-0.238163901
King Alfred School,,E09000003,Barnet,Archives,51.56967063,-0.184458946
Barnet Museum,,E09000003,Barnet,Archives,51.65287654,-0.202296261
Middlesex University: Museum of Domestic Design & Architecture Collections Centre,,E09000003,Barnet,Archives,51.59604884,-0.241636786
Middlesex University: Sheppard Library,,E09000003,Barnet,Archives,51.5904557,-0.22959233
Jews College Library,,E09000003,Barnet,Archives,51.58821378,-0.213739211
Barnet Local Studies and Archives,,E09000003,Barnet,Archives,51.58859385,-0.228932832
Brent Museum and Archives,,E09000005,Brent,Archives,51.5466504,-0.228921501
Enfield Local Studies Library and Archive,,E09000010,Enfield,Archives,51.65031766,-0.081118167
Broomfield House Museum,,E09000010,Enfield,Archives,51.61844628,-0.11800416
Brompton Oratory,,E09000020,Kensington and Chelse,Archives,51.49747072,-0.169815218
Chelsea and Westminster Hospital Archives,,E09000020,Kensington and Chelse,Archives,51.48425239,-0.181434976
Leighton House Museum,,E09000020,Kensington and Chelse,Archives,51.49858782,-0.203095135
Commonwealth Institute,,E09000020,Kensington and Chelse,Archives,51.49987443,-0.200159027
London University: Heythrop College,,E09000020,Kensington and Chelse,Archives,51.49946248,-0.1902477
"Offer, Watermann & Co",,E09000020,Kensington and Chelse,Archives,51.48229148,-0.180821618
Royal British Society of Sculptors,,E09000020,Kensington and Chelse,Archives,51.49173139,-0.179509541
State Apartments and Court Dress Collection: Kensington Palace,,E09000020,Kensington and Chelse,Archives,51.50519934,-0.188021818
National Army Museum Templer Study Centre,,E09000020,Kensington and Chelse,Archives,51.48622897,-0.160337437
Chelsea Physic Garden,,E09000020,Kensington and Chelse,Archives,51.48457384,-0.162251549
Chelsea Library,,E09000020,Kensington and Chelse,Archives,51.48747216,-0.168170333
Eighteen Stafford Terrace: Sambourne Family Archive,,E09000020,Kensington and Chelse,Archives,51.50045223,-0.196840681
"National Art Library, Victoria & Albert Museum",,E09000020,Kensington and Chelse,Archives,51.49690228,-0.172098033
"Victoria & Albert Museum, Department of Designs, Prints and Drawings",,E09000020,Kensington and Chelse,Archives,51.49690228,-0.172098033
Royal Institute of British Architects,,E09000020,Kensington and Chelse,Archives,51.49690228,-0.172098033
"Victoria & Albert Museum, Department of Textiles and Dress",,E09000020,Kensington and Chelse,Archives,51.49690228,-0.172098033
Natural History Museum Library and Archives,,E09000020,Kensington and Chelse,Archives,51.49656438,-0.176867722
Armenian Institute,,E09000020,Kensington and Chelse,Archives,51.49955292,-0.193331863
Kensington and Chelsea Libraries and Arts Service,,E09000020,Kensington and Chelse,Archives,51.50141889,-0.194406095
Writers and Scholars Educational Trust (Index on Censorship),,E09000019,Islington,Archives,51.52727965,-0.108473109
Survival International,,E09000019,Islington,Archives,51.52292435,-0.098289009
International PEN,,E09000019,Islington,Archives,51.5230092,-0.098530535
Society of Genealogists,,E09000019,Islington,Archives,51.5226949,-0.098558049
Honourable Artillery Company,,E09000019,Islington,Archives,51.52301548,-0.088410608
Marx Memorial Library,,E09000019,Islington,Archives,51.52296494,-0.105797743
Corps of Commissionaires (Corps Security),,E09000019,Islington,Archives,51.52003774,-0.102733663
"Amnesty International, International Secretariat",,E09000019,Islington,Archives,51.52582065,-0.111128528
Royal Statistical Society,,E09000019,Islington,Archives,51.52252542,-0.090896162
Royal National Institute for the Deaf,,E09000019,Islington,Archives,51.52448381,-0.088565323
Mencap,,E09000019,Islington,Archives,51.52387977,-0.095654351
Scope (formerly the Spastics Society),,E09000019,Islington,Archives,51.54710287,-0.118742027
Guildhall Library Manuscripts Section,,E09000019,Islington,Archives,51.52537595,-0.107528493
London Metropolitan Archives: City of London,,E09000019,Islington,Archives,51.52537595,-0.107528493
"City, University of London",,E09000019,Islington,Archives,51.52770618,-0.102587756
Prison Reform Trust,,E09000019,Islington,Archives,51.52385619,-0.100297203
Legal Action Group,,E09000019,Islington,Archives,51.53119215,-0.119701061
Association for the Conservation of Energy,,E09000019,Islington,Archives,51.53567982,-0.096863134
UKCISA: UK Council for International Student Affairs,,E09000019,Islington,Archives,51.53662962,-0.104422713
Museum of Order of St John,,E09000019,Islington,Archives,51.52192262,-0.10251114
British Psychological Society: History of Psychology Centre,,E09000019,Islington,Archives,51.52319332,-0.086082254
Tavistock Institute of Human Relations,,E09000019,Islington,Archives,51.52319332,-0.086082254
Working Men's Club & Institute Union Ltd,,E09000019,Islington,Archives,51.54566034,-0.103441508
British Deaf Association,,E09000019,Islington,Archives,51.5223107,-0.086551737
Save the Children UK,,E09000019,Islington,Archives,51.5207651,-0.102112419
National Council for Voluntary Youth Services,,E09000019,Islington,Archives,51.5330567,-0.106474468
Guardian News & Media Archive (formerly the Newsroom),,E09000019,Islington,Archives,51.53499869,-0.121548397
ActionAid Central Archive,,E09000019,Islington,Archives,51.56568099,-0.135607243
Evangelical Alliance,,E09000019,Islington,Archives,51.53708312,-0.119746587
National Council of Voluntary Child Care Organisations,,E09000019,Islington,Archives,51.52925214,-0.101427729
Church Times,,E09000019,Islington,Archives,51.52353627,-0.094991154
Islington Local History Centre,,E09000019,Islington,Archives,51.52648755,-0.104527002
Community Service Volunteers,,E09000019,Islington,Archives,51.53092502,-0.11818378
Fields in Trust (formerly the National Playing Fields Association),,E09000019,Islington,Archives,51.53442884,-0.121903503
London Borough of Sutton: Archives & Local Studies,,E09000029,Sutton,Archives,51.36207339,-0.195154616
Medical Defence Union,,E09000028,Southwark,Archives,51.50584065,-0.104000959
University of the Arts London: University Archives and Special Collections,,E09000028,Southwark,Archives,51.4949151,-0.101818139
University of the Arts London: London College of Communication,,E09000028,Southwark,Archives,51.4949151,-0.101818139
Mental Health Foundation,,E09000028,Southwark,Archives,51.50844093,-0.10672454
Confederation of Indian Organisations (UK),,E09000028,Southwark,Archives,51.49843095,-0.105691744
United Medical and Dental Schools: The Wills Library,,E09000028,Southwark,Archives,51.50345369,-0.08824992
Imperial War Museum Film Archive,,E09000028,Southwark,Archives,51.49452227,-0.106444522
Imperial War Museum Photograph Archive,,E09000028,Southwark,Archives,51.49452227,-0.106444522
Salvation Army International Heritage Centre,,E09000028,Southwark,Archives,51.46754133,-0.089275363
News UK Archive,,E09000028,Southwark,Archives,51.50542632,-0.087719169
Society of Chiropodists and Podiatrists,,E09000028,Southwark,Archives,51.5004366,-0.078074266
United Society for the Propagation of the Gospel,,E09000028,Southwark,Archives,51.50330287,-0.101109232
London South Bank University Archives Centre,,E09000028,Southwark,Archives,51.49870595,-0.101742556
Electoral Reform Society of Great Britain and Ireland,,E09000028,Southwark,Archives,51.50515771,-0.102919768
Royal Commonwealth Ex-Services League,,E09000028,Southwark,Archives,51.50196215,-0.091640797
Southwark Local History Library and Archive,,E09000028,Southwark,Archives,51.50176866,-0.091908241
Russo-British Chamber of Commerce,,E09000028,Southwark,Archives,51.50498866,-0.093603703
National Osteopathic Archive,,E09000028,Southwark,Archives,51.50008115,-0.094312879
British School of Osteopathy,,E09000028,Southwark,Archives,51.50008115,-0.094312879
Imperial War Museum Department of Documents,,E09000028,Southwark,Archives,51.49600948,-0.108327792
Imperial War Museum Sound Archive,,E09000028,Southwark,Archives,51.49600948,-0.108327792
DayCare Trust,,E09000028,Southwark,Archives,51.49529754,-0.102666646
Bankside Gallery,,E09000028,Southwark,Archives,51.50819212,-0.100934689
Shakespeare's Globe Library and Archives,,E09000028,Southwark,Archives,51.50811239,-0.09657156
Chartered Institute of Journalists,,E09000028,Southwark,Archives,51.49677063,-0.051027719
Action for Blind People,,E09000028,Southwark,Archives,51.48468217,-0.062835752
Dulwich College Archive,,E09000028,Southwark,Archives,51.44028029,-0.085018121
Dulwich Picture Gallery,,E09000028,Southwark,Archives,51.4459777,-0.086420365
Alleyn's School Archive,,E09000028,Southwark,Archives,51.45478129,-0.081993244
South London Gallery,,E09000028,Southwark,Archives,51.47428603,-0.079749725
James Allen's Girls' School,,E09000028,Southwark,Archives,51.45542039,-0.085528085
Royal British Legion,,E09000028,Southwark,Archives,51.50216782,-0.092122101
The Children's Society Records and Archive Centre,,E09000028,Southwark,Archives,51.49419634,-0.062821182
University of the Arts London: Camberwell College of Arts,,E09000028,Southwark,Archives,51.47411741,-0.079886404
Society of Radiographers,,E09000028,Southwark,Archives,51.50165493,-0.070674501
London Wildlife Trust,,E09000028,Southwark,Archives,51.5038528,-0.101749191
Co-operative Party,,E09000028,Southwark,Archives,51.50207687,-0.085987748
Alexandra Park and Palace Charitable Trust,,E09000014,Haringey,Archives,51.59448347,-0.130501429
Moravian Church Archive and Library,,E09000014,Haringey,Archives,51.58751364,-0.134410693
Evangelical Library,,E09000014,Haringey,Archives,51.60960732,-0.13437207
George Padmore Institute,,E09000014,Haringey,Archives,51.56813088,-0.109447471
Highgate School Archives,,E09000014,Haringey,Archives,51.57220174,-0.149324045
Haringey Archive Service,,E09000014,Haringey,Archives,51.5991501,-0.075440905
Railfuture,,E09000012,Hackney,Archives,51.54712954,-0.074981487
Campaign for Better Transport ,,E09000012,Hackney,Archives,51.5319723,-0.096152741
British Plastics Federation,,E09000012,Hackney,Archives,51.52631281,-0.082722063
Alpine Club Archives,,E09000012,Hackney,Archives,51.52591939,-0.080662628
Geffrye Museum,,E09000012,Hackney,Archives,51.53155722,-0.076244067
National Society for the Prevention of Cruelty to Children,,E09000012,Hackney,Archives,51.52340481,-0.080126923
Livability (Shaftesbury Society),,E09000012,Hackney,Archives,51.52326552,-0.081149086
Museum of London: London Archaeological Archive and Research Centre,,E09000012,Hackney,Archives,51.53473431,-0.090702331
"Hackney Public Libraries, Stoke Newington District Library",,E09000012,Hackney,Archives,51.5616189,-0.082795826
The Wyndham Ashworth Archive,,E09000022,Lambeth,Archives,51.49154783,-0.120555522
Prospect,,E09000022,Lambeth,Archives,51.50217833,-0.116329069
"Cinema Museum, Ronald Grant Archive",,E09000022,Lambeth,Archives,51.49228045,-0.105168913
Topolski Century,,E09000022,Lambeth,Archives,51.50484918,-0.115769002
Black Cultural Archives,,E09000022,Lambeth,Archives,51.46051638,-0.114572316
Lambeth Archives,,E09000022,Lambeth,Archives,51.47129501,-0.105390235
European Movement,,E09000022,Lambeth,Archives,51.49222021,-0.11986521
International Fund for Animal Welfare Charitable Trust,,E09000022,Lambeth,Archives,51.48796534,-0.123713335
Ramblers Association,,E09000022,Lambeth,Archives,51.48796534,-0.123713335
King's College London: St Thomas' House Library,,E09000022,Lambeth,Archives,51.49948958,-0.118384483
Marine Society,,E09000022,Lambeth,Archives,51.49554589,-0.116400357
Sea Cadet Association,,E09000022,Lambeth,Archives,51.49554589,-0.116400357
Garden Museum Archives,,E09000022,Lambeth,Archives,51.49504923,-0.12019536
Rambert Dance Company Archives,,E09000022,Lambeth,Archives,51.50617404,-0.113523269
Countryside Alliance,,E09000022,Lambeth,Archives,51.48681908,-0.111128096
D'Oyly Carte Opera Company,,E09000022,Lambeth,Archives,51.48847861,-0.11087226
Sir Arthur Sullivan Society,,E09000022,Lambeth,Archives,51.44132765,-0.128128304
Society for Cooperation in Russian and Soviet Studies,,E09000022,Lambeth,Archives,51.4692849,-0.112903029
World Development Movement,,E09000022,Lambeth,Archives,51.46394243,-0.113972754
Catholic Truth Society,,E09000022,Lambeth,Archives,51.48531584,-0.120552493
Type Museum,,E09000022,Lambeth,Archives,51.47344231,-0.115870702
Socialist Party of Great Britain,,E09000022,Lambeth,Archives,51.46389204,-0.132733683
Musicians Union,,E09000022,Lambeth,Archives,51.47964474,-0.115154428
United Medical and Dental Schools: St Thomas's Hospital,,E09000022,Lambeth,Archives,51.49699222,-0.120230644
"British Film Institute, Special Collections",,E09000022,Lambeth,Archives,51.5069462,-0.115937366
Hayward Gallery Library and Archives,,E09000022,Lambeth,Archives,51.50613299,-0.115444817
Southbank Centre Archive,,E09000022,Lambeth,Archives,51.50576807,-0.116800006
National Theatre Archive,,E09000022,Lambeth,Archives,51.50233994,-0.10885803
Greenwich Heritage Centre,,E09000011,Greenwich,Archives,51.49430805,0.069422401
National Maritime Museum: The Caird Library and Archive,,E09000011,Greenwich,Archives,51.48094088,-0.005215641
University of Greenwich,,E09000011,Greenwich,Archives,51.48296792,-0.006397414
EMI Group Archive Trust,,E09000017,Hillingdon,Archives,51.5081604,-0.430243685
London School of Theology,,E09000017,Hillingdon,Archives,51.61294959,-0.431728976
Brunel University Archives,,E09000017,Hillingdon,Archives,51.53662881,-0.471007019
British Airways Heritage Collection,,E09000017,Hillingdon,Archives,51.48549094,-0.487020906
"Hillingdon Local Studies, Archives and Museums Service",,E09000017,Hillingdon,Archives,51.54518515,-0.478276716
SADAA (South Asian Diaspora Arts Archive),,E09000017,Hillingdon,Archives,51.53283992,-0.472835336
Brunel University Library,,E09000017,Hillingdon,Archives,51.53283992,-0.472835336
Lewisham Local History and Archives Centre,,E09000023,Lewisham,Archives,51.4592745,-0.011657207
IRIE! dance theatre,,E09000023,Lewisham,Archives,51.47785681,-0.035301972
MAKE Resource Centre Collections (formerly the Women's Art Library),,E09000023,Lewisham,Archives,51.47414396,-0.035375199
London University: Goldsmiths Library: Special Collections and Archives,,E09000023,Lewisham,Archives,51.47414396,-0.035375199
Horniman Museum and Gardens,,E09000023,Lewisham,Archives,51.44113087,-0.060736392
Illustrated London News Picture Library,,E09000023,Lewisham,Archives,51.46670535,0.006662793
Bible Churchmens Missionary Society,,E09000023,Lewisham,Archives,51.46925434,-0.026960722
Trinity Laban Conservatoire of Music and Dance: Laban Archive,,E09000023,Lewisham,Archives,51.48032533,-0.019007985
Haberdashers' Aske's Federation Trust: Hatcham College,,E09000023,Lewisham,Archives,51.46768411,-0.042722194
Royal Institution of Great Britain,,E09000033,City of Westminster,Archives,51.50994668,-0.14255344
Institution of Mechanical Engineers Archive,,E09000033,City of Westminster,Archives,51.50120342,-0.129955923
Girlguiding UK,,E09000033,City of Westminster,Archives,51.49875796,-0.143008591
The Theatres Trust Resource Centre,,E09000033,City of Westminster,Archives,51.51060881,-0.12820152
National Institute of Economic and Social Research,,E09000033,City of Westminster,Archives,51.49570564,-0.128063247
Blind Veterans UK,,E09000033,City of Westminster,Archives,51.52012515,-0.164755341
Royal Humane Society,,E09000033,City of Westminster,Archives,51.51055883,-0.118893777
University of Westminster Archives,,E09000033,City of Westminster,Archives,51.51819661,-0.141078952
Royal Academy of Music Library,,E09000033,City of Westminster,Archives,51.52349886,-0.151674537
Tate Gallery Archive,,E09000033,City of Westminster,Archives,51.49087146,-0.127180936
Royal Commission for the Exhibition of 1851,,E09000033,City of Westminster,Archives,51.49874348,-0.177630777
Zoological Society of London,,E09000033,City of Westminster,Archives,51.53572042,-0.155706918
Royal Over-Seas League,,E09000033,City of Westminster,Archives,51.50631997,-0.140683595
Parliamentary Archives,,E09000033,City of Westminster,Archives,51.49984153,-0.124637491
Association of Directors of Adult Social Services,,E09000033,City of Westminster,Archives,51.49557688,-0.126757514
French Protestant Church,,E09000033,City of Westminster,Archives,51.51580427,-0.133133904
London Library,,E09000033,City of Westminster,Archives,51.50734035,-0.136981791
Royal Institute of International Affairs,,E09000033,City of Westminster,Archives,51.50778656,-0.136199821
Royal Opera House Collections,,E09000033,City of Westminster,Archives,51.51304711,-0.122653705
"RSA (The Royal Society for the Encouragement of Arts, Manufactures and Commerce)",,E09000033,City of Westminster,Archives,51.50939707,-0.122717356
Royal Institution of Naval Architects,,E09000033,City of Westminster,Archives,51.50743401,-0.125363147
Royal Society,,E09000033,City of Westminster,Archives,51.50587456,-0.132459245
Law Society of England and Wales,,E09000033,City of Westminster,Archives,51.51495084,-0.111837845
Imperial College Archives and Corporate Records Unit,,E09000033,City of Westminster,Archives,51.49886271,-0.174888563
Science Museum Library (Documentation),,E09000033,City of Westminster,Archives,51.49832104,-0.178223934
University of the Arts London: Chelsea College of Art and Design,,E09000033,City of Westminster,Archives,51.49055367,-0.129232572
National Liberal Club,,E09000033,City of Westminster,Archives,51.50604245,-0.123820779
Royal Society of Medicine,,E09000033,City of Westminster,Archives,51.51600691,-0.147048706
Radio Centre,,E09000033,City of Westminster,Archives,51.51256293,-0.131191151
Chemical Industries Association,,E09000033,City of Westminster,Archives,51.49575664,-0.126188277
"London University: London School of Economics, The Women's Library",,E09000033,City of Westminster,Archives,51.51483618,-0.11589258
British Universities Film and Video Council,,E09000033,City of Westminster,Archives,51.51637417,-0.137304849
General Dental Council,,E09000033,City of Westminster,Archives,51.51979279,-0.148754417
Wallace Collection,,E09000033,City of Westminster,Archives,51.51716928,-0.152896625
Building Societies Association,,E09000033,City of Westminster,Archives,51.51389915,-0.118583158
Commonwealth Parliamentary Association,,E09000033,City of Westminster,Archives,51.49644332,-0.126390616
Royal National Institute for the Blind,,E09000033,City of Westminster,Archives,51.51655711,-0.14090071
Finance and Leasing Association,,E09000033,City of Westminster,Archives,51.51371733,-0.118460941
Transport for London (TfL) Corporate Archives,,E09000033,City of Westminster,Archives,51.49942609,-0.133501017
Incorporated Council of Law Reporting for England and Wales,,E09000033,City of Westminster,Archives,51.51440862,-0.111672912
Victim Support National Centre,,E09000033,City of Westminster,Archives,51.52097037,-0.143603839
Archives of the British Psychoanalytical Society,,E09000033,City of Westminster,Archives,51.52664589,-0.194378265
Conservative Christian Fellowship,,E09000033,City of Westminster,Archives,51.49272186,-0.125923818
Association of Anaesthetists of Great Britain and Ireland,,E09000033,City of Westminster,Archives,51.51939349,-0.145109412
Garrick Club Library,,E09000033,City of Westminster,Archives,51.51130593,-0.126241768
Royal Geographical Society,,E09000033,City of Westminster,Archives,51.50150309,-0.175244098
Westminster School Archive,,E09000033,City of Westminster,Archives,51.49820881,-0.128263203
St Vincent de Paul Society (England & Wales) Ltd,,E09000033,City of Westminster,Archives,51.51862244,-0.152664835
Football Association,,E09000033,City of Westminster,Archives,51.51516082,-0.13112801
Royal College of Pathologists,,E09000033,City of Westminster,Archives,51.50580651,-0.133268985
London Transport Museum,,E09000033,City of Westminster,Archives,51.5121249,-0.121221618
Air League,,E09000033,City of Westminster,Archives,51.49984047,-0.132461109
Imperial War Museum: Churchill War Rooms,,E09000033,City of Westminster,Archives,51.50217907,-0.129377362
Royal College of Obstetricians and Gynaecologists,,E09000033,City of Westminster,Archives,51.52680999,-0.162093274
Canning House Library,,E09000033,City of Westminster,Archives,51.5003496,-0.154398373
Anglo-Chilean Society,,E09000033,City of Westminster,Archives,51.52207935,-0.146629122
Society of St John the Evangelist,,E09000033,City of Westminster,Archives,51.49775347,-0.128469161
Reform Club,,E09000033,City of Westminster,Archives,51.50660955,-0.13343789
London Business School Library,,E09000033,City of Westminster,Archives,51.52658256,-0.161352782
Madame Tussaud's Ltd,,E09000033,City of Westminster,Archives,51.5229671,-0.155026018
Marylebone Cricket Club Library,,E09000033,City of Westminster,Archives,51.52943247,-0.17281502
Japan Society,,E09000033,City of Westminster,Archives,51.49808833,-0.136509229
Cayzer Family Archive,,E09000033,City of Westminster,Archives,51.49918072,-0.139043655
Grenadier Guards Regimental Archives,,E09000033,City of Westminster,Archives,51.4999858,-0.137642078
Scots Guards Regimental Headquarters,,E09000033,City of Westminster,Archives,51.4999858,-0.137642078
The Welsh Regiment,,E09000033,City of Westminster,Archives,51.4999858,-0.137642078
Duchy of Cornwall Office,,E09000033,City of Westminster,Archives,51.49993301,-0.141116576
Conservative Party Research Department,,E09000033,City of Westminster,Archives,51.49813388,-0.132588528
Institute for European Environmental Policy,,E09000033,City of Westminster,Archives,51.50034483,-0.133074443
Association of Conservative Clubs Ltd,,E09000033,City of Westminster,Archives,51.50100242,-0.130886294
Advertising Association,,E09000033,City of Westminster,Archives,51.49670957,-0.135196816
Channel 4 Document Archive,,E09000033,City of Westminster,Archives,51.4957021,-0.132918466
City of Westminster Archives Centre,,E09000033,City of Westminster,Archives,51.49755544,-0.130148527
Westminster Baptist Church,,E09000033,City of Westminster,Archives,51.49499663,-0.131535466
Royal Horticultural Society Lindley Libraries,,E09000033,City of Westminster,Archives,51.49436107,-0.134543574
Royal College of Veterinary Surgeons Trust,,E09000033,City of Westminster,Archives,51.49497311,-0.12780514
Mothers' Union,,E09000033,City of Westminster,Archives,51.49665845,-0.128600476
Institution of Civil Engineers,,E09000033,City of Westminster,Archives,51.50110324,-0.128749716
ChurchCare Library,,E09000033,City of Westminster,Archives,51.497938,-0.129326046
The Society of The Faith,,E09000033,City of Westminster,Archives,51.49757121,-0.12831815
Westminster Abbey Library and Muniment Room,,E09000033,City of Westminster,Archives,51.4990043,-0.127394947
Catholic Bishops' Conference of England and Wales,,E09000033,City of Westminster,Archives,51.49106651,-0.144765532
Catholic Education Service,,E09000033,City of Westminster,Archives,51.49106651,-0.144765532
Green Alliance,,E09000033,City of Westminster,Archives,51.49269242,-0.142160353
Royal Society for Asian Affairs,,E09000033,City of Westminster,Archives,51.49372918,-0.148010279
Society of Motor Manufacturers and Traders Ltd,,E09000033,City of Westminster,Archives,51.50108697,-0.152682785
Royal Anglo-Belgian Club,,E09000033,City of Westminster,Archives,51.50247195,-0.158981047
British-German Association,,E09000033,City of Westminster,Archives,51.49860148,-0.151890056
Great Britain - China Centre,,E09000033,City of Westminster,Archives,51.49860801,-0.155160323
"Institute of Materials, Minerals and Mining",,E09000033,City of Westminster,Archives,51.50569129,-0.133374566
Plastics Historical Society,,E09000033,City of Westminster,Archives,51.50569129,-0.133374566
Institute of Directors,,E09000033,City of Westminster,Archives,51.50719177,-0.131598377
British Academy,,E09000033,City of Westminster,Archives,51.5063498,-0.131243765
Town and Country Planning Association,,E09000033,City of Westminster,Archives,51.50671003,-0.130148252
Civic Trust,,E09000033,City of Westminster,Archives,51.50671003,-0.130148252
Federation of British Artists,,E09000033,City of Westminster,Archives,51.50671003,-0.130148252
Athenaeum,,E09000033,City of Westminster,Archives,51.50684074,-0.132707924
Royal Automobile Club,,E09000033,City of Westminster,Archives,51.50592662,-0.135166189
Commonwealth Secretariat,,E09000033,City of Westminster,Archives,51.50514791,-0.135961714
Institute of Contemporary Arts,,E09000033,City of Westminster,Archives,51.50638923,-0.130896308
Royal Albert Hall Archive,,E09000033,City of Westminster,Archives,51.50126863,-0.17751559
Royal College of Music,,E09000033,City of Westminster,Archives,51.4992805,-0.176888956
Royal College of Art,,E09000033,City of Westminster,Archives,51.50135507,-0.178448688
English National Ballet Archives,,E09000033,City of Westminster,Archives,51.50074685,-0.17866026
"London University: London School of Economics Library, Archives and Special Collections",,E09000033,City of Westminster,Archives,51.51483618,-0.11589258
Royal College of Surgeons of England,,E09000033,City of Westminster,Archives,51.51528552,-0.11587403
Food and Drink Federation,,E09000033,City of Westminster,Archives,51.51270833,-0.12003022
Duchy of Lancaster Office,,E09000033,City of Westminster,Archives,51.51013113,-0.118579941
National Portrait Gallery,,E09000033,City of Westminster,Archives,51.5093988,-0.128452893
British Actors' Equity Association,,E09000033,City of Westminster,Archives,51.51208035,-0.127997054
National Gallery Research Centre,,E09000033,City of Westminster,Archives,51.50909835,-0.127658197
Institution of Engineering and Technology (IET) Archives,,E09000033,City of Westminster,Archives,51.51028947,-0.119481331
Institution of Incorporated Engineers,,E09000033,City of Westminster,Archives,51.51028947,-0.119481331
Savoy Archives,,E09000033,City of Westminster,Archives,51.50994545,-0.119899019
Coutts & Co,,E09000033,City of Westminster,Archives,51.50910072,-0.124992068
London University: Courtauld Institute of Art,,E09000033,City of Westminster,Archives,51.51102034,-0.117952415
Royal Society of Literature,,E09000033,City of Westminster,Archives,51.51102034,-0.117952415
Wigmore Hall,,E09000033,City of Westminster,Archives,51.51665556,-0.148261914
British Veterinary Association,,E09000033,City of Westminster,Archives,51.51901537,-0.146220252
Royal College of Midwives Archives,,E09000033,City of Westminster,Archives,51.51936074,-0.146451262
Howard de Walden Estates Ltd,,E09000033,City of Westminster,Archives,51.51794832,-0.146984288
Palestine Exploration Fund,,E09000033,City of Westminster,Archives,51.51676904,-0.150894955
Alfred Dunhill Museum and Archive,,E09000033,City of Westminster,Archives,51.5163984,-0.151342371
British Dental Association Museum,,E09000033,City of Westminster,Archives,51.5185766,-0.148616377
Archives of the Royal Philatelic Society London,,E09000033,City of Westminster,Archives,51.52147742,-0.150084306
Institute of Physics,,E09000033,City of Westminster,Archives,51.52168834,-0.145217928
Nursing and Midwifery Council,,E09000033,City of Westminster,Archives,51.51956538,-0.145174496
Medical Research Council,,E09000033,City of Westminster,Archives,51.52278226,-0.147292501
British Institute of Radiology,,E09000033,City of Westminster,Archives,51.52001346,-0.144507634
Landscape Institute,,E09000033,City of Westminster,Archives,51.51690058,-0.141578562
Performing Right Society Archives,,E09000033,City of Westminster,Archives,51.5184036,-0.137121112
Royal Astronomical Society Library,,E09000033,City of Westminster,Archives,51.50909914,-0.139576037
Society of Antiquaries of London,,E09000033,City of Westminster,Archives,51.50909914,-0.139576037
Royal Academy of Arts,,E09000033,City of Westminster,Archives,51.50909914,-0.139576037
Geologists Association,,E09000033,City of Westminster,Archives,51.50909914,-0.139576037
Royal Society of Chemistry,,E09000033,City of Westminster,Archives,51.50909914,-0.139576037
Linnean Society of London,,E09000033,City of Westminster,Archives,51.50909914,-0.139576037
Geological Society of London,,E09000033,City of Westminster,Archives,51.50909914,-0.139576037
British Board of Film Classification,,E09000033,City of Westminster,Archives,51.51533741,-0.133181828
Agnew's,,E09000033,City of Westminster,Archives,51.51005319,-0.143601127
English-Speaking Union of the Commonwealth,,E09000033,City of Westminster,Archives,51.50786441,-0.146788412
Arab-British Chamber of Commerce,,E09000033,City of Westminster,Archives,51.51042165,-0.153270578
Handel House Trust,,E09000033,City of Westminster,Archives,51.51296728,-0.145903845
Gimpel Fils,,E09000033,City of Westminster,Archives,51.51195324,-0.14774652
Institute of Brewing & Distilling,,E09000033,City of Westminster,Archives,51.50689961,-0.145487425
Electrical Contractors' Association,,E09000033,City of Westminster,Archives,51.51178125,-0.192055219
National Campaign for Nursery Education,,E09000033,City of Westminster,Archives,51.48659594,-0.132570322
British Retail Consortium,,E09000033,City of Westminster,Archives,51.50031567,-0.131807714
Chartered Institute of Public Finance and Accountancy,,E09000033,City of Westminster,Archives,51.50874887,-0.122671958
British Council,,E09000033,City of Westminster,Archives,51.50699994,-0.129718478
Imperial College Healthcare NHS Trust Archives,,E09000033,City of Westminster,Archives,51.51697102,-0.173544641
Alexander Fleming Laboratory Museum,,E09000033,City of Westminster,Archives,51.51697102,-0.173544641
Anthroposophical Society in Great Britain,,E09000033,City of Westminster,Archives,51.52489743,-0.160555743
JCA Charitable Foundation,,E09000033,City of Westminster,Archives,51.496849,-0.142493071
Harrow School Archives,,E09000015,Harrow,Archives,51.57228208,-0.337383023
Society of the Divine Saviour (Salvatorians),,E09000015,Harrow,Archives,51.60015881,-0.337389687
North London Collegiate School,,E09000015,Harrow,Archives,51.61417689,-0.2947011
Harrow Local History Collection,,E09000015,Harrow,Archives,51.59406082,-0.352613082
National Air Traffic Services Ltd,,E09000018,Hounslow,Archives,51.48044982,-0.412330588
Hounslow and Feltham Local Studies Service,,E09000018,Hounslow,Archives,51.44636331,-0.411070417
London Museum of Water & Steam,,E09000018,Hounslow,Archives,51.48905549,-0.290517573
Leprosy Mission International,,E09000018,Hounslow,Archives,51.48961264,-0.309043989
Chiswick Library Local Studies Service,,E09000018,Hounslow,Archives,51.49169574,-0.261085466
GlaxoSmithKline Heritage Archives,,E09000018,Hounslow,Archives,51.48869905,-0.315612974
Gunnersbury Park Museum,,E09000018,Hounslow,Archives,51.49954349,-0.286321449
Orleans House Gallery,,E09000027,Richmond upon Thames,Archives,51.44733169,-0.319072216
St Paul's School Archives,,E09000027,Richmond upon Thames,Archives,51.48769585,-0.237417739
World Rugby Museum,,E09000027,Richmond upon Thames,Archives,51.45564884,-0.341739408
"Surrey University: St Mary's College, Strawberry Hill",,E09000027,Richmond upon Thames,Archives,51.43615142,-0.335885113
Bexley Local Studies and Archive Centre,,E09000004,Bexley,Archives,51.45599566,0.143775809
Waltham Forest Archives,,E09000031,Waltham Forest,Archives,51.58401371,-0.012739358
William Morris Gallery,,E09000031,Waltham Forest,Archives,51.59130071,-0.020376611
Chartered Insurance Institute,,E09000026,Redbridge,Archives,51.59393333,0.022654036
Spurgeon's College,,E09000008,Croydon,Archives,51.40643282,-0.086202504
Age Concern,,E09000008,Croydon,Archives,51.40683553,-0.120521531
ART AND CRAFT STUDIOS,,E09000018,Hounslow,Artists workspaces,51.46693812,-0.332369119
Pavilion Studios,,E09000018,Hounslow,Artists workspaces,51.48079098,-0.256102401
,,E09000018,Hounslow,Artists workspaces,51.48224975,-0.305388834
The Forge / Diesel House Studios,,E09000018,Hounslow,Artists workspaces,51.48905549,-0.290517573
Stockwell Road,,E09000022,Lambeth,Artists workspaces,51.46469069,-0.114647355
,,E09000022,Lambeth,Artists workspaces,51.46498994,-0.102541588
Arch 258,,E09000022,Lambeth,Artists workspaces,51.4650893,-0.101457693
STUDIO 27,,E09000022,Lambeth,Artists workspaces,51.4663483,-0.098684343
coldharbour studios,,E09000022,Lambeth,Artists workspaces,51.4663483,-0.098684343
Bread & Roses,,E09000022,Lambeth,Artists workspaces,51.46766401,-0.137623387
,,E09000022,Lambeth,Artists workspaces,51.46814799,-0.113223473
Glassyard,,E09000022,Lambeth,Artists workspaces,51.4688417,-0.120581162
,,E09000022,Lambeth,Artists workspaces,51.47371047,-0.13248182
,,E09000022,Lambeth,Artists workspaces,51.48513475,-0.11543231
Studio 180,,E09000022,Lambeth,Artists workspaces,51.49568915,-0.115874653
Makespace studios,,E09000022,Lambeth,Artists workspaces,51.49863391,-0.113261782
Empire Arches,,E09000022,Lambeth,Artists workspaces,51.42278226,-0.138149048
Carlew House,,E09000022,Lambeth,Artists workspaces,51.43040236,-0.100809816
,,E09000022,Lambeth,Artists workspaces,51.43431391,-0.104676051
Streatham Hill,,E09000022,Lambeth,Artists workspaces,51.44056664,-0.124965017
Ongean Studios,,E09000022,Lambeth,Artists workspaces,51.44959481,-0.100359001
,,E09000022,Lambeth,Artists workspaces,51.46197333,-0.134222761
Brixton Village,,E09000022,Lambeth,Artists workspaces,51.46254928,-0.111784377
Bureau Of Silly Ideas,,E09000022,Lambeth,Artists workspaces,51.46283153,-0.111441616
Pipeline Projects,,E09000032,Wandsworth,Artists workspaces,51.46791673,-0.218611754
,,E09000032,Wandsworth,Artists workspaces,51.47101893,-0.156330777
Nine Elms,,E09000032,Wandsworth,Artists workspaces,51.47990872,-0.138775447
Wandsworth Plain,,E09000032,Wandsworth,Artists workspaces,51.45787306,-0.194574699
Wimbledon Art Studios,,E09000032,Wandsworth,Artists workspaces,51.43253345,-0.188293862
,,E09000032,Wandsworth,Artists workspaces,51.45787306,-0.194574699
,,E09000028,Southwark,Artists workspaces,51.46813197,-0.074090545
,,E09000028,Southwark,Artists workspaces,51.46985233,-0.068791459
,,E09000028,Southwark,Artists workspaces,51.46999995,-0.065747142
,,E09000028,Southwark,Artists workspaces,51.47308408,-0.081585729
,,E09000028,Southwark,Artists workspaces,51.4754813,-0.065486485
Havil Street,,E09000028,Southwark,Artists workspaces,51.4758599,-0.083053318
3-5 Latona Road,,E09000028,Southwark,Artists workspaces,51.48194983,-0.071103315
7-17 Latona Road,,E09000028,Southwark,Artists workspaces,51.48194983,-0.071103315
Galleria,,E09000028,Southwark,Artists workspaces,51.48202767,-0.073649245
Haymerle,,E09000028,Southwark,Artists workspaces,51.48249513,-0.069812888
Ilderton Road,,E09000028,Southwark,Artists workspaces,51.48319987,-0.054242484
Toaster factory ,,E09000028,Southwark,Artists workspaces,51.4833284,-0.054942753
,,E09000028,Southwark,Artists workspaces,51.48360739,-0.071278223
Penarth Centre,,E09000028,Southwark,Artists workspaces,51.48369637,-0.054898283
Chaplin Centre,,E09000028,Southwark,Artists workspaces,51.48835522,-0.086620189
,,E09000028,Southwark,Artists workspaces,51.48835522,-0.086620189
,,E09000028,Southwark,Artists workspaces,51.4886017,-0.096793913
,,E09000028,Southwark,Artists workspaces,51.48957529,-0.100268165
,,E09000028,Southwark,Artists workspaces,51.48966933,-0.101632723
,,E09000028,Southwark,Artists workspaces,51.49061133,-0.100383562
Highline,,E09000028,Southwark,Artists workspaces,51.49174915,-0.099010959
,,E09000028,Southwark,Artists workspaces,51.49426019,-0.079270584
,,E09000028,Southwark,Artists workspaces,51.49461357,-0.090997012
,,E09000028,Southwark,Artists workspaces,51.49434755,-0.073086554
TOWER BRIDGE BUSINESS COMPLEX,,E09000028,Southwark,Artists workspaces,51.49419634,-0.062821182
,,E09000028,Southwark,Artists workspaces,51.49690542,-0.062958383
,,E09000028,Southwark,Artists workspaces,51.49882177,-0.095950285
,,E09000028,Southwark,Artists workspaces,51.50316867,-0.097267573
,,E09000019,Islington,Artists workspaces,51.5323504,-0.107844697
Peabody Yard,,E09000019,Islington,Artists workspaces,51.53893654,-0.096395539
,,E09000019,Islington,Artists workspaces,51.55218806,-0.093967122
,,E09000019,Islington,Artists workspaces,51.55994394,-0.11368203
Archway,,E09000019,Islington,Artists workspaces,51.5651689,-0.133940039
,,E09000019,Islington,Artists workspaces,51.56599723,-0.131179085
,,E09000023,Lewisham,Artists workspaces,51.47148298,-0.030608277
,,E09000023,Lewisham,Artists workspaces,51.47640151,-0.021496653
Art Hub Deptford,,E09000023,Lewisham,Artists workspaces,51.47711774,-0.020774389
,,E09000023,Lewisham,Artists workspaces,51.47862647,-0.020651416
The Old Police Station,,E09000023,Lewisham,Artists workspaces,51.47944482,-0.031863687
Childers Street,,E09000023,Lewisham,Artists workspaces,51.48215624,-0.034814615
"Unit 10, Elizabeth Trading Estate",,E09000023,Lewisham,Artists workspaces,51.48279792,-0.04468175
JUNO ENTERPRISE CENTRE,,E09000023,Lewisham,Artists workspaces,51.48373076,-0.046154152
GUILD HOUSE FIRST FLOOR FRONT,,E09000023,Lewisham,Artists workspaces,51.48389554,-0.050107974
Forest Hill Library,,E09000023,Lewisham,Artists workspaces,51.43589345,-0.05618143
Louise House,,E09000023,Lewisham,Artists workspaces,51.43593313,-0.055863213
,,E09000023,Lewisham,Artists workspaces,51.43970001,-0.054710451
,,E09000023,Lewisham,Artists workspaces,51.44137819,-0.04639394
Catford Dek,,E09000023,Lewisham,Artists workspaces,51.4452943,-0.020380851
Leegate Studios,,E09000023,Lewisham,Artists workspaces,51.45619315,0.011887677
Ladywell Bridge,,E09000023,Lewisham,Artists workspaces,51.45683463,-0.018399094
Manor House,,E09000023,Lewisham,Artists workspaces,51.45731767,0.004509413
Norman House,,E09000011,Greenwich,Artists workspaces,51.4767242,-0.017176849
Borthwick St,,E09000011,Greenwich,Artists workspaces,51.48496902,-0.024778976
Azof,,E09000011,Greenwich,Artists workspaces,51.48899702,0.007934343
,,E09000011,Greenwich,Artists workspaces,51.49125055,0.066501421
,,E09000011,Greenwich,Artists workspaces,51.49280506,0.046945644
Thames-side studios,,E09000011,Greenwich,Artists workspaces,51.4943765,0.043965071
Art Hub HQ,,E09000011,Greenwich,Artists workspaces,51.49456696,0.039912483
Chisenhale Studios,,E09000030,Tower Hamlets,Artists workspaces,51.53308803,-0.039708154
The Forge,,E09000030,Tower Hamlets,Artists workspaces,51.48879019,-0.019159363
The Rum Factory ,,E09000030,Tower Hamlets,Artists workspaces,51.50860472,-0.062944696
,,E09000030,Tower Hamlets,Artists workspaces,51.50824807,0.00848912
,,E09000030,Tower Hamlets,Artists workspaces,51.50844157,0.008742624
Cable Street Studios,,E09000030,Tower Hamlets,Artists workspaces,51.51136698,-0.042996736
Art Space at St Katharines,,E09000030,Tower Hamlets,Artists workspaces,51.51149426,-0.041463615
Fitzgerald House,,E09000030,Tower Hamlets,Artists workspaces,51.51165109,-0.014953291
Limehouse Town Hall,,E09000030,Tower Hamlets,Artists workspaces,51.51210827,-0.031406437
Ratcliffe Cross Street ,,E09000030,Tower Hamlets,Artists workspaces,51.51289369,-0.042873615
Aberfieldy Street studios,,E09000030,Tower Hamlets,Artists workspaces,51.51399396,-0.006218176
,,E09000030,Tower Hamlets,Artists workspaces,51.51666169,-0.072187702
Leven Road,,E09000030,Tower Hamlets,Artists workspaces,51.51697596,-0.00758686
Copperfield Road,,E09000030,Tower Hamlets,Artists workspaces,51.51907944,-0.03580472
The Fire Station,,E09000030,Tower Hamlets,Artists workspaces,51.5196308,-0.009820501
Brickfield,,E09000030,Tower Hamlets,Artists workspaces,51.52087781,-0.013888751
Limehouse Studios,,E09000030,Tower Hamlets,Artists workspaces,51.52132162,-0.011952243
Empson Street,,E09000030,Tower Hamlets,Artists workspaces,51.52169352,-0.012671208
No.w.here,,E09000030,Tower Hamlets,Artists workspaces,51.52634659,-0.063993455
"The Crypt, St John on Bethnal Green",,E09000030,Tower Hamlets,Artists workspaces,51.52758087,-0.054901582
Warren House,,E09000030,Tower Hamlets,Artists workspaces,51.52734413,-0.017110529
Bow Road,,E09000030,Tower Hamlets,Artists workspaces,51.52894539,-0.017675298
P1,,E09000030,Tower Hamlets,Artists workspaces,51.52999642,-0.015481409
Unripe Banana,,E09000030,Tower Hamlets,Artists workspaces,51.53095177,-0.068959633
,,E09000030,Tower Hamlets,Artists workspaces,51.53236861,-0.052419253
Robinson Road,,E09000030,Tower Hamlets,Artists workspaces,51.53237471,-0.052418128
Unit 8,,E09000030,Tower Hamlets,Artists workspaces,51.53478204,-0.020363184
Cell Projects,,E09000030,Tower Hamlets,Artists workspaces,51.53396121,-0.058436075
Crown Close,,E09000030,Tower Hamlets,Artists workspaces,51.53669093,-0.024779336
Britannia Works,,E09000030,Tower Hamlets,Artists workspaces,51.53775378,-0.022743329
Swan Wharf,,E09000030,Tower Hamlets,Artists workspaces,51.53773485,-0.021619376
Britannia Works,,E09000030,Tower Hamlets,Artists workspaces,51.53777223,-0.022771369
Bridget Riley,,E09000030,Tower Hamlets,Artists workspaces,51.53778211,-0.022754214
Stour Space,,E09000030,Tower Hamlets,Artists workspaces,51.54018102,-0.021095068
Pearl & Coutts Studios,,E09000030,Tower Hamlets,Artists workspaces,51.54283703,-0.022349895
White Post Lane,,E09000030,Tower Hamlets,Artists workspaces,51.5428834,-0.023501627
,,E09000017,Hillingdon,Artists workspaces,51.50155042,-0.475855495
Colville Rd,,E09000009,Ealing,Artists workspaces,51.49926169,-0.273723932
Vale Grove,,E09000009,Ealing,Artists workspaces,51.50562536,-0.261336032
,,E09000009,Ealing,Artists workspaces,51.5109107,-0.32648899
,,E09000009,Ealing,Artists workspaces,51.5238037,-0.28239624
Queensrolla House,,E09000009,Ealing,Artists workspaces,51.52628079,-0.269213144
Park Royal,,E09000009,Ealing,Artists workspaces,51.52689275,-0.267416716
52-56 Standard Road,,E09000009,Ealing,Artists workspaces,51.52830491,-0.263787706
Stewkley House,,E09000009,Ealing,Artists workspaces,51.53620195,-0.317631001
Faroe Rd,,E09000013,Hammersmith and Fulham,Artists workspaces,51.49859209,-0.21515405
Hetley Rd,,E09000013,Hammersmith and Fulham,Artists workspaces,51.50456464,-0.2336672
Cadogen House,,E09000013,Hammersmith and Fulham,Artists workspaces,51.52659825,-0.236173141
Regents House,,E09000013,Hammersmith and Fulham,Artists workspaces,51.52826456,-0.243547884
Hythe Rd,,E09000013,Hammersmith and Fulham,Artists workspaces,51.52846055,-0.243425
Apex House,,E09000013,Hammersmith and Fulham,Artists workspaces,51.52853021,-0.244474766
,,E09000033,City of Westminster,Artists workspaces,51.49942723,-0.140978677
Somerset House Studios,,E09000033,City of Westminster,Artists workspaces,51.51102034,-0.117952415
,,E09000033,City of Westminster,Artists workspaces,51.51611869,-0.163878723
,,E09000033,City of Westminster,Artists workspaces,51.52119908,-0.196309173
,,E09000033,City of Westminster,Artists workspaces,51.52954595,-0.198761663
Netil House,,E09000012,Hackney,Artists workspaces,51.53756412,-0.057705951
Worship Street,,E09000012,Hackney,Artists workspaces,51.5219245,-0.083829052
,,E09000012,Hackney,Artists workspaces,51.5270715,-0.081825164
,,E09000012,Hackney,Artists workspaces,51.53175017,-0.079782839
Sara Lane,,E09000012,Hackney,Artists workspaces,51.53318399,-0.078929432
Timber Wharf -Block C,,E09000012,Hackney,Artists workspaces,51.53589392,-0.075841961
Orsman Road,,E09000012,Hackney,Artists workspaces,51.53614877,-0.078761295
Timber Wharf -Arches,,E09000012,Hackney,Artists workspaces,51.53613283,-0.075856685
Studio Manifold,,E09000012,Hackney,Artists workspaces,51.53613283,-0.075856685
Southgate Studios,,E09000012,Hackney,Artists workspaces,51.53770691,-0.086049946
Hertford Road Studios,,E09000012,Hackney,Artists workspaces,51.53872642,-0.078566189
Triangle,,E09000012,Hackney,Artists workspaces,51.53844286,-0.057553178
The Rose Lipman Building ,,E09000012,Hackney,Artists workspaces,51.53896522,-0.081613285
,,E09000012,Hackney,Artists workspaces,51.53954391,-0.075777387
Martello,,E09000012,Hackney,Artists workspaces,51.54106797,-0.058595104
Victor House,,E09000012,Hackney,Artists workspaces,51.54387614,-0.059831322
,,E09000012,Hackney,Artists workspaces,51.54439017,-0.022729636
,,E09000012,Hackney,Artists workspaces,51.54470612,-0.023869727
117 Wallis Road,,E09000012,Hackney,Artists workspaces,51.544736,-0.023507873
Deborah House,,E09000012,Hackney,Artists workspaces,51.5452378,-0.049216113
Limberg Films,,E09000012,Hackney,Artists workspaces,51.54639144,-0.082613412
Belsham,,E09000012,Hackney,Artists workspaces,51.5460622,-0.051748168
Dalston,,E09000012,Hackney,Artists workspaces,51.54674074,-0.074305591
"Francis Upritchard, Daniel Silver and Martino Gamper",,E09000012,Hackney,Artists workspaces,51.54645856,-0.051940816
,,E09000012,Hackney,Artists workspaces,51.54696352,-0.074728878
Sarabande Studios,,E09000012,Hackney,Artists workspaces,51.53812812,-0.078822119
,,E09000012,Hackney,Artists workspaces,51.54737642,-0.05453345
Hatch,,E09000012,Hackney,Artists workspaces,51.54734988,-0.042555944
Eastway,,E09000012,Hackney,Artists workspaces,51.54716562,-0.029489133
,,E09000012,Hackney,Artists workspaces,51.54842551,-0.070671927
Unit 7 Stamford Works,,E09000012,Hackney,Artists workspaces,51.54932153,-0.076490034
Matchmakers Wharf,,E09000012,Hackney,Artists workspaces,51.55170739,-0.031124787
,,E09000012,Hackney,Artists workspaces,51.55243575,-0.074469156
,,E09000012,Hackney,Artists workspaces,51.55274138,-0.071181865
Cognative Collective,,E09000012,Hackney,Artists workspaces,51.55290465,-0.055480648
,,E09000012,Hackney,Artists workspaces,51.55476372,-0.066754358
Stoke Newington,,E09000012,Hackney,Artists workspaces,51.5616189,-0.082795826
Praxis N16,,E09000012,Hackney,Artists workspaces,51.56555751,-0.072371521
Politi Arts,,E09000012,Hackney,Artists workspaces,51.56602112,-0.074862551
,,E09000012,Hackney,Artists workspaces,51.56609206,-0.051397889
Murder Mile Studios,,E09000012,Hackney,Artists workspaces,51.56617233,-0.05189949
Second Floor Studios & Arts,,,,Artists workspaces,51.55954185,-0.283276549
Harrow Road,,E09000005,Brent,Artists workspaces,51.53083547,-0.230314269
,,E09000005,Brent,Artists workspaces,51.53204976,-0.238701755
,,E09000005,Brent,Artists workspaces,51.54461354,-0.273896663
Barham Park,,E09000005,Brent,Artists workspaces,51.55232008,-0.310992689
Honeypot Lane,,E09000005,Brent,Artists workspaces,51.59056614,-0.283819623
R>A>W Studios,,E09000025,Newham,Artists workspaces,51.50636087,0.074924925
Flying Angel,,E09000025,Newham,Artists workspaces,51.51019552,0.028044592
REAR OF 120,,E09000025,Newham,Artists workspaces,51.52640867,0.055983302
Napier Works,,E09000025,Newham,Artists workspaces,51.53075547,0.061946286
Warton House,,E09000025,Newham,Artists workspaces,51.53466962,-0.006814132
Rowse Close,,E09000025,Newham,Artists workspaces,51.5382833,-0.007261893
Stratford Studios,,E09000025,Newham,Artists workspaces,51.53885852,-0.000372685
Old Manor Park Library,,E09000025,Newham,Artists workspaces,51.55312932,0.053754443
Old Manor Park Library,,E09000025,Newham,Artists workspaces,51.55312932,0.053754443
Blechynden St,,E09000020,Kensington and Chelsea,Artists workspaces,51.51448115,-0.21686752
Maxilla Walk,,E09000020,Kensington and Chelsea,Artists workspaces,51.51629922,-0.215787564
The Crow's Nest,,E09000020,Kensington and Chelsea,Artists workspaces,51.51638109,-0.219992996
Buspace Studios,,E09000020,Kensington and Chelsea,Artists workspaces,51.52546573,-0.211262853
,,E09000001,City and County of the City of London,Artists workspaces,51.51718918,-0.105648316
,,E09000007,Camden,Artists workspaces,51.52146685,-0.116080083
L-13 Light Industrial Workshop,,E09000007,Camden,Artists workspaces,51.52297272,-0.110741889
Cob Gallery,,E09000007,Camden,Artists workspaces,51.54116049,-0.138023016
Arlington,,E09000007,Camden,Artists workspaces,51.54304284,-0.151286158
,,E09000007,Camden,Artists workspaces,51.54434518,-0.196835746
Ice House Court,,E09000002,Barking and Dagenham,Artists workspaces,51.53148797,0.075993916
Lea Bridge Road,,E09000031,Waltham Forest,Artists workspaces,51.56829694,-0.03476634
,,E09000031,Waltham Forest,Artists workspaces,51.57047233,-0.038482444
Mentmore Studios,,E09000031,Waltham Forest,Artists workspaces,51.57054799,-0.039244046
Unit 1,,E09000031,Waltham Forest,Artists workspaces,51.57124191,-0.037179377
,,E09000031,Waltham Forest,Artists workspaces,51.58518778,-0.003507516
Mitre Studios,,E09000031,Waltham Forest,Artists workspaces,51.58806078,-0.021282421
,,E09000031,Waltham Forest,Artists workspaces,51.58860521,-0.028520497
Blackhorse Lane Studios,,E09000031,Waltham Forest,Artists workspaces,51.5913952,-0.039401366
,,E09000031,Waltham Forest,Artists workspaces,51.59204955,-0.038737955
Lloyd Park Artist Studios,,E09000031,Waltham Forest,Artists workspaces,51.59340583,-0.022032233
"Park Sudios, Finsbury Park",,E09000014,Haringey,Artists workspaces,51.57058187,-0.106416534
,,E09000014,Haringey,Artists workspaces,51.57495228,-0.088137877
,,E09000014,Haringey,Artists workspaces,51.5804164,-0.078036318
Carvall Warehouse ,,E09000014,Haringey,Artists workspaces,51.58210093,-0.068366781
,,E09000014,Haringey,Artists workspaces,51.58254221,-0.06840582
,,E09000014,Haringey,Artists workspaces,51.58343971,-0.063936386
Euro Art Studios,,E09000014,Haringey,Artists workspaces,51.58375702,-0.063547609
Gaunson House ,,E09000014,Haringey,Artists workspaces,51.58376601,-0.063547228
,,E09000014,Haringey,Artists workspaces,51.59419545,-0.113072676
,,E09000026,Redbridge,Artists workspaces,51.57210608,0.066377156
,,E09000015,Harrow,Artists workspaces,51.57904253,-0.349360673
Whitefriars Avenue,,E09000015,Harrow,Artists workspaces,51.59858267,-0.340392831
Lombard Rd,,E09000024,Merton,Artists workspaces,51.40966428,-0.189427848
Phipps Bridge,,E09000024,Merton,Artists workspaces,51.40526325,-0.182225598
Cannizaro Park,,E09000024,Merton,Artists workspaces,51.42373831,-0.232511218
Oaks Park,,E09000029,Sutton,Artists workspaces,51.33383365,-0.174127333
,,E09000008,Croydon,Artists workspaces,51.3763539,-0.099010414
Hawks Road,,E09000021,Kingston upon Thames,Artists workspaces,51.40818644,-0.293224831
,,E09000003,Barnet,Artists workspaces,51.61281644,-0.176699509
Arts Depot ,,E09000003,Barnet,Arts centres,51.61281644,-0.176699509
Battersea Arts Centre ,,E09000032,Wandsworth,Arts centres,51.46516318,-0.160813767
Bernie Grant Arts Centre ,,E09000014,Haringey,Arts centres,51.58747503,-0.073075943
Jacksons Lane ,,E09000014,Haringey,Arts centres,51.57668107,-0.145404162
Chats Palace ,,E09000012,Hackney,Arts centres,51.55026393,-0.042683326
Dugdale  ,,E09000010,Enfield,Arts centres,51.65031766,-0.081118167
Harrow Arts Centre ,,E09000015,Harrow,Arts centres,51.60848854,-0.363803161
ICA,,E09000033,City of Westminster,Arts centres,51.50671003,-0.130148252
Irish Cultural Centre ,,E09000013,Hammersmith and Fulham,Arts centres,51.49231323,-0.225584711
Riverside Studios ,,E09000013,Hammersmith and Fulham,Arts centres,51.48890897,-0.228255397
JW3,,E09000007,Camden,Arts centres,51.5509403,-0.184819282
OSO Arts Centre,,E09000027,Richmond upon Thames,Arts centres,51.47230095,-0.246625659
The Landmark Arts Centre ,,E09000027,Richmond upon Thames,Arts centres,51.4280867,-0.324626903
Redbridge Drama Centre ,,E09000026,Redbridge,Arts centres,51.5984529,0.022659873
Rich Mix ,,E09000030,Tower Hamlets,Arts centres,51.52435934,-0.073275203
Poplar Union ,,E09000030,Tower Hamlets,Arts centres,51.51559973,-0.02298261
Southbank Centre ,,E09000022,Lambeth,Arts centres,51.50576807,-0.116800006
Streatham Space Project ,,E09000022,Lambeth,Arts centres,51.43878494,-0.1276554
The Tabernacle,,E09000020,Kensington and Chelsea,Arts centres,51.51696816,-0.201881407
The Albany ,,E09000023,Lewisham,Arts centres,51.4778771,-0.027409247
The Arts Centre Houndslow ,,E09000018,Hounslow,Arts centres,51.46813353,-0.363025347
Watermans Arts Centre,,E09000018,Hounslow,Arts centres,51.48576836,-0.298042371
The Barbican ,,E09000001,City and County of the City of London,Arts centres,51.51996071,-0.094102589
The Library at Willesdon Green,,E09000005,Brent,Arts centres,51.5466504,-0.228921501
Fairfield Halls ,,E09000008,Croydon,Arts centres,51.37252439,-0.095778074
Stratford Circus Arts Centre ,,E09000025,Newham,Arts centres,51.5427166,0.001743614
Cineworld Cinema London Wembley,,,,Cinemas,51.5568562,-0.283710525
The Lexi Cinema,,E09000005,Brent,Cinemas,51.53758916,-0.222597116
Tricycle Cinema,,E09000005,Brent,Cinemas,51.542975,-0.200134773
Cineworld Wembley,,E09000005,Brent,Cinemas,51.55668714,-0.283479984
Showcase Newham,,E09000025,Newham,Cinemas,51.5263416,0.081209375
Stratford East Picturehouse,,E09000025,Newham,Cinemas,51.54305291,0.001512921
Vue Westfield Stratford,,E09000025,Newham,Cinemas,51.54329458,-0.006869893
David Lean Cinema,,E09000008,Croydon,Cinemas,51.37216277,-0.098982766
Vue Croydon,,E09000008,Croydon,Cinemas,51.37299684,-0.101060374
Vue Croydon Purley Way,,E09000008,Croydon,Cinemas,51.37812235,-0.124500703
Odeon Beckenham,,E09000006,Bromley,Cinemas,51.40710681,-0.031376363
Odeon Kingston,,E09000021,Kingston upon Thames,Cinemas,51.41170695,-0.299341879
Odeon Wimbledon,,E09000024,Merton,Cinemas,51.41961437,-0.204898842
Odeon Streatham,,E09000022,Lambeth,Cinemas,51.43209051,-0.128031046
West Norwood Library And Picturehouse,,E09000022,Lambeth,Cinemas,51.43320347,-0.103297699
Ritzy Picturehouse,,E09000022,Lambeth,Cinemas,51.46127292,-0.114615424
Clapham Picturehouse,,E09000022,Lambeth,Cinemas,51.46254063,-0.138230597
Whirled Cinema,,E09000022,Lambeth,Cinemas,51.4650893,-0.101457691
BFI IMAX,,E09000022,Lambeth,Cinemas,51.50481779,-0.113625853
BFI Southbank,,E09000022,Lambeth,Cinemas,51.5069462,-0.115937365
Cineworld Felham,,E09000018,Hounslow,Cinemas,51.44390485,-0.404573783
Watermans Art Centre,,E09000018,Hounslow,Cinemas,51.48576836,-0.298042369
Cineworld Wandsworth,,E09000032,Wandsworth,Cinemas,51.45396118,-0.193404797
Odeon Putney,,E09000032,Wandsworth,Cinemas,51.46517461,-0.213924278
Curzon Richmond,,E09000027,Richmond upon Thames,Cinemas,51.45928636,-0.306829126
Odeon Richmond,,E09000027,Richmond upon Thames,Cinemas,51.45941188,-0.305557719
Olympic Cinema,,E09000027,Richmond upon Thames,Cinemas,51.47521925,-0.240756393
East Dulwich Picturehouse & Cafe,,E09000028,Southwark,Cinemas,51.45644173,-0.076309899
Peckhamplex,,E09000028,Southwark,Cinemas,51.4707435,-0.068195156
Odeon Surrey Quays,,E09000028,Southwark,Cinemas,51.49637199,-0.043293711
Kino Bermondsey,,E09000028,Southwark,Cinemas,51.49769493,-0.080820887
Curzon Mondrian London,,E09000028,Southwark,Cinemas,51.50844385,-0.106938994
Sands Film Cinema,,E09000028,Southwark,Cinemas,51.49861795,-0.097798646
Cineworld Bexleyheath,,E09000004,Bexley,Cinemas,51.45608879,0.149984183
Curzon Goldsmiths,,E09000023,Lewisham,Cinemas,51.47414396,-0.035375198
Deptford Cinema,,E09000023,Lewisham,Cinemas,51.47439559,-0.024665131
Vue Cinema Fulham Broadway,,E09000013,Hammersmith and Fulham,Cinemas,51.48041645,-0.194491515
Riverside Studios,,E09000013,Hammersmith and Fulham,Cinemas,51.4858941,-0.217837706
"Vue Shepherd's Bush



",,E09000013,Hammersmith and Fulham,Cinemas,51.50759869,-0.221401856
Greenwich Picturehouse,,E09000011,Greenwich,Cinemas,51.47943879,-0.009671085
Odeon Greenwich,,E09000011,Greenwich,Cinemas,51.49057603,0.012774431
Cineworld The O2 Greenwich,,E09000011,Greenwich,Cinemas,51.50302657,0.004537684
Cineworld Fulham Road,,E09000020,Kensington and Chelsea,Cinemas,51.48715248,-0.179403852
Curzon Chelsea,,E09000020,Kensington and Chelsea,Cinemas,51.48812685,-0.167481493
Cine Lumiere,,E09000020,Kensington and Chelsea,Cinemas,51.49455508,-0.177192834
Gate Picturehouse,,E09000020,Kensington and Chelsea,Cinemas,51.50874073,-0.197248228
Electric Cinema (Portobello),,E09000020,Kensington and Chelsea,Cinemas,51.51552416,-0.20506589
Odeon Tottenham Court Road,,E09000007,Camden,Cinemas,51.51822109,-0.13242965
Odeon Covent Garden,,E09000007,Camden,Cinemas,51.51432336,-0.128236541
Covent Garden Hotel,,E09000007,Camden,Cinemas,51.51454739,-0.127059926
Curzon Bloomsbury,,E09000007,Camden,Cinemas,51.52415207,-0.123148238
Birkbeck Cinema,,E09000007,Camden,Cinemas,51.52468923,-0.130319663
Everyman Kings Cross,,E09000007,Camden,Cinemas,51.53744767,-0.127359687
Odeon Camden Town,,E09000007,Camden,Cinemas,51.53916175,-0.144117937
Odeon Swiss Cottage,,E09000007,Camden,Cinemas,51.54245283,-0.174485313
Vue Finchley Road,,E09000007,Camden,Cinemas,51.54794663,-0.181390374
JW3,,E09000007,Camden,Cinemas,51.55096978,-0.184399808
Everyman Belsize Park,,E09000007,Camden,Cinemas,51.55072038,-0.166047949
Everyman Hampstead,,E09000007,Camden,Cinemas,51.55644354,-0.179003013
Curzon Victoria,,E09000033,City of Westminster,Cinemas,51.49771545,-0.13681259
Imperial College Union Cinema,,E09000033,City of Westminster,Cinemas,51.50027797,-0.178150759
Curzon Mayfair,,E09000033,City of Westminster,Cinemas,51.50659042,-0.147546226
ICA,,E09000033,City of Westminster,Cinemas,51.50641041,-0.131097181
Empire Cinema Haymarket,,E09000033,City of Westminster,Cinemas,51.50875843,-0.132283615
Vue Piccadilly,,E09000033,City of Westminster,Cinemas,51.50894604,-0.134466399
Odeon Luxe Haymarket,,E09000033,City of Westminster,Cinemas,51.50951524,-0.131243872
Odeon Panton Street,,E09000033,City of Westminster,Cinemas,51.50951524,-0.131243872
Picturehouse Central,,E09000033,City of Westminster,Cinemas,51.51087392,-0.133551736
Empire Leicester Square,,E09000033,City of Westminster,Cinemas,51.51086931,-0.130439035
Ham Yard Hotel,,E09000033,City of Westminster,Cinemas,51.51116353,-0.134578107
Prince Charles Cinema,,E09000033,City of Westminster,Cinemas,51.51149518,-0.130211635
Empire Cinemas Walthamstow,,E09000033,City of Westminster,Cinemas,51.51152033,-0.129533253
Vue Leicester Square,,E09000033,City of Westminster,Cinemas,51.51152033,-0.129533253
Curzon Soho,,E09000033,City of Westminster,Cinemas,51.5127941,-0.130461077
Odeon The Lounge,,E09000033,City of Westminster,Cinemas,51.5145804,-0.188715908
Odeon Whiteleys,,E09000033,City of Westminster,Cinemas,51.5145804,-0.188715908
Soho Hotel,,E09000033,City of Westminster,Cinemas,51.51393266,-0.133628424
Regent Street Cinema,,E09000033,City of Westminster,Cinemas,51.51679361,-0.143341349
Charlotte Street Hotel,,E09000033,City of Westminster,Cinemas,51.51838839,-0.135031716
Everyman Baker Street,,E09000033,City of Westminster,Cinemas,51.52055382,-0.156536225
Everyman Maida Vale,,E09000033,City of Westminster,Cinemas,51.52798819,-0.181724821
Everyman Canary Wharf,,E09000030,Tower Hamlets,Cinemas,51.50613284,-0.017815954
Cineworld West India Quay,,E09000030,Tower Hamlets,Cinemas,51.50790861,-0.022854652
Genesis Cinema,,E09000030,Tower Hamlets,Cinemas,51.5214676,-0.051212502
Close-Up Film Centre,,E09000030,Tower Hamlets,Cinemas,51.52367213,-0.07203506
Electric Cinema (Shoreditch),,E09000030,Tower Hamlets,Cinemas,51.52436077,-0.073909444
Rich Mix,,E09000030,Tower Hamlets,Cinemas,51.52435934,-0.073275201
Curzon Aldgate,,E09000030,Tower Hamlets,Cinemas,51.51381826,-0.068805541
Barbican Centre,,E09000001,City and County of the City of London,Cinemas,51.51996071,-0.094102587
Vue Action,,E09000009,Ealing,Cinemas,51.52571185,-0.281286457
"Vue Islington 




",,E09000019,Islington,Cinemas,51.53423596,-0.105992938
Everyman Screen on the Green,,E09000019,Islington,Cinemas,51.53688804,-0.103719819
Odeon Holloway,,E09000019,Islington,Cinemas,51.55871979,-0.12145086
Vue Dagenham,,E09000002,Barking and Dagenham,Cinemas,51.53209602,0.135786712
Odeon Uxbridge,,E09000017,Hillingdon,Cinemas,51.54514957,-0.475537829
Cineworld South Ruislip,,E09000017,Hillingdon,Cinemas,51.55907317,-0.400059705
Hackney Picturehouse,,E09000012,Hackney,Cinemas,51.54485701,-0.054986963
Rio Cinema,,E09000012,Hackney,Cinemas,51.54963226,-0.075698054
The Castle Cinema,,E09000012,Hackney,Cinemas,51.55129042,-0.043302828
Balik Arts,,E09000012,Hackney,Cinemas,51.55915333,-0.073926029
Cineworld Illford,,E09000026,Redbridge,Cinemas,51.5579113,0.074679439
Odeon South Woodford,,E09000026,Redbridge,Cinemas,51.59455889,0.023194377
Odeon South Woodford,,E09000026,Redbridge,Cinemas,51.59455889,0.023194377
Vue Harrow,,E09000015,Harrow,Cinemas,51.58146751,-0.338952777
Vue Romford,,E09000016,Havering,Cinemas,51.5749063,0.180083579
Crouch End Picturehouse,,E09000014,Haringey,Cinemas,51.58140392,-0.120645866
Arthouse Crouch End,,E09000014,Haringey,Cinemas,51.58183363,-0.119964197
Everyman Muswell Hill,,E09000014,Haringey,Cinemas,51.58960665,-0.146191625
Cineworld Wood Green,,E09000014,Haringey,Cinemas,51.59455236,-0.109549528
Vue Wood Green,,E09000014,Haringey,Cinemas,51.59685806,-0.108659726
Empire Walthamstow,,E09000031,Waltham Forest,Cinemas,51.58501143,-0.020158837
Phoenix (East Finchley),,E09000003,Barnet,Cinemas,51.58850761,-0.163659643
Vue North Finchley,,E09000003,Barnet,Cinemas,51.60383798,-0.173285971
Vue North Finchley,,E09000003,Barnet,Cinemas,51.60383798,-0.173285971
Odeon Lee Valley,,E09000010,Enfield,Cinemas,51.63319203,-0.037238206
Cineworld Enfield,,E09000010,Enfield,Cinemas,51.65008708,-0.060879811
Domobaal,,E09000007,Camden,Commercial galleries,51.52160663,-0.114704893
Catto Gallery,,E09000007,Camden,Commercial galleries,51.55850338,-0.178459104
Freespace Gallery,,E09000007,Camden,Commercial galleries,51.54640649,-0.139928913
Orange Dot Gallery,,E09000007,Camden,Commercial galleries,51.52564779,-0.125018476
Lawrence Alkin Gallery,,E09000007,Camden,Commercial galleries,51.51542854,-0.127614696
University of the Arts London Gallery,,E09000007,Camden,Commercial galleries,51.51776637,-0.116362566
Gallery K,,E09000007,Camden,Commercial galleries,51.55916189,-0.178591492
Austin Desmond Fine Art,,E09000007,Camden,Commercial galleries,51.51879361,-0.124348782
Brunei Gallery,,E09000007,Camden,Commercial galleries,51.52235179,-0.129233404
The October Gallery,,E09000007,Camden,Commercial galleries,51.52069374,-0.121704875
Rebecca Hossack Gallery 2,,E09000007,Camden,Commercial galleries,51.51894489,-0.13496573
Rebecca Hossack Gallery 1,,E09000007,Camden,Commercial galleries,51.52204781,-0.13952379
The Framers Gallery,,E09000007,Camden,Commercial galleries,51.5189051,-0.13416017
Beside the Wave,,E09000007,Camden,Commercial galleries,51.54017463,-0.154171219
Woolff Gallery,,E09000007,Camden,Commercial galleries,51.52047104,-0.137065535
Lahd Gallery,,E09000007,Camden,Commercial galleries,51.55821625,-0.178499427
The Cob Gallery,,E09000007,Camden,Commercial galleries,51.5411605,-0.138023015
Edge of Arabia,,E09000007,Camden,Commercial galleries,51.51812949,-0.121623037
Hanmi Gallery,,E09000007,Camden,Commercial galleries,51.52220044,-0.138940963
Gagosian Gallery 1,,E09000007,Camden,Commercial galleries,51.53010375,-0.118001393
L. Ron Hubbards Fitzroy House,,E09000007,Camden,Commercial galleries,51.52250112,-0.139188172
Novelty Automation,,E09000007,Camden,Commercial galleries,51.51966354,-0.116904072
Charlie Dutton Gallery,,E09000007,Camden,Commercial galleries,51.51966354,-0.116904072
Simon Oldfield,,E09000007,Camden,Commercial galleries,51.51856295,-0.123421355
The Gallery at 94,,E09000007,Camden,Commercial galleries,51.5226043,-0.141158848
Tristan Hoare,,E09000007,Camden,Commercial galleries,51.52345761,-0.139394224
Hardy Tree Gallery,,E09000007,Camden,Commercial galleries,51.5334252,-0.128880189
University College London Museums,,E09000007,Camden,Commercial galleries,51.52454102,-0.13400177
Contemporary Applied Arts,,E09000007,Camden,Commercial galleries,51.51791356,-0.134013332
Architectural Association,,E09000007,Camden,Commercial galleries,51.51822007,-0.130671204
The Crypt Gallery,,E09000007,Camden,Commercial galleries,51.52707881,-0.130164067
Pollock's Toy Museum,,E09000007,Camden,Commercial galleries,51.52033482,-0.135283698
Coningsby Gallery,,E09000007,Camden,Commercial galleries,51.52036607,-0.136118463
Eagle Gallery,,E09000019,Islington,Commercial galleries,51.52416186,-0.109755626
Work,,E09000019,Islington,Commercial galleries,51.54283831,-0.091358091
Dreamspace Gallery,,E09000019,Islington,Commercial galleries,51.52258599,-0.092407237
Bloomberg Space,,E09000019,Islington,Commercial galleries,51.52000017,-0.087138724
Arcade,,E09000019,Islington,Commercial galleries,51.52701264,-0.096417408
Sway Gallery,,E09000019,Islington,Commercial galleries,51.52424074,-0.095177975
Islington Arts Factory,,E09000019,Islington,Commercial galleries,51.55421887,-0.122848051
James Freeman Gallery,,E09000019,Islington,Commercial galleries,51.53460763,-0.104506756
Curious Duke Gallery,,E09000019,Islington,Commercial galleries,51.52368336,-0.093529026
Modern Art 1,,E09000019,Islington,Commercial galleries,51.52503946,-0.094524733
All Visual Arts,,E09000019,Islington,Commercial galleries,51.53146408,-0.120396334
Cubitt Gallery,,E09000019,Islington,Commercial galleries,51.5323504,-0.107844695
Medici Gallery,,E09000019,Islington,Commercial galleries,51.53269655,-0.108118705
Guardian News & Media,,E09000019,Islington,Commercial galleries,51.53499869,-0.121548395
Beers London,,E09000019,Islington,Commercial galleries,51.52700709,-0.088892094
Pangolin London,,E09000019,Islington,Commercial galleries,51.53499869,-0.121548395
William Benington,,E09000019,Islington,Commercial galleries,51.53020001,-0.106102854
Usurp,,E09000015,Harrow,Commercial galleries,51.57904584,-0.349346696
CubeFuture,,E09000030,Tower Hamlets,Commercial galleries,51.51934937,-0.072665139
Eleven Spitalfields,,E09000030,Tower Hamlets,Commercial galleries,51.51985616,-0.07285995
Leyden Gallery,,E09000030,Tower Hamlets,Commercial galleries,51.51689895,-0.076227906
Brick Lane Gallery,,E09000030,Tower Hamlets,Commercial galleries,51.5244813,-0.071395967
Espacio Gallery,,E09000030,Tower Hamlets,Commercial galleries,51.52560906,-0.070526555
Whitechapel Gallery,,E09000030,Tower Hamlets,Commercial galleries,51.51617304,-0.070363429
The Mews Project Space,,E09000030,Tower Hamlets,Commercial galleries,51.51642914,-0.070078743
Stolenspace Gallery,,E09000030,Tower Hamlets,Commercial galleries,51.51647502,-0.070134457
Maureen Paley,,E09000030,Tower Hamlets,Commercial galleries,51.5252549,-0.055982227
Four Corners Gallery,,E09000030,Tower Hamlets,Commercial galleries,51.52889595,-0.048991303
Arebyte,,E09000030,Tower Hamlets,Commercial galleries,51.5428834,-0.023501626
Proof London,,E09000030,Tower Hamlets,Commercial galleries,51.52345087,-0.070387758
Vilma Gold,,E09000030,Tower Hamlets,Commercial galleries,51.53159921,-0.059704513
Modern Art 2,,E09000030,Tower Hamlets,Commercial galleries,51.53461966,-0.054759988
Chisenhale Gallery,,E09000030,Tower Hamlets,Commercial galleries,51.53307609,-0.039795322
Forman's Smokehouse Gallery,,E09000030,Tower Hamlets,Commercial galleries,51.5396254,-0.021203967
The Alexander Miles Gallery,,E09000030,Tower Hamlets,Commercial galleries,51.50742805,-0.071208676
Calvert 22,,E09000030,Tower Hamlets,Commercial galleries,51.52608388,-0.07623214
Breese Little,,E09000030,Tower Hamlets,Commercial galleries,51.52573238,-0.055552882
Public Exhibitions,,E09000030,Tower Hamlets,Commercial galleries,51.53065451,-0.072292396
Union Gallery,,E09000030,Tower Hamlets,Commercial galleries,51.52981452,-0.061320976
Cell Project Space,,E09000030,Tower Hamlets,Commercial galleries,51.5332797,-0.056604193
Unit 9,,E09000030,Tower Hamlets,Commercial galleries,51.52407937,-0.074843942
Raven Row,,E09000030,Tower Hamlets,Commercial galleries,51.51815918,-0.076852235
Pitzhanger Manor House & Gallery,,E09000009,Ealing,Commercial galleries,51.51090757,-0.307092299
Studio 106,,E09000013,Hammersmith and Fulham,Commercial galleries,51.48049962,-0.204007863
Louise T Blouin Institute,,E09000013,Hammersmith and Fulham,Commercial galleries,51.51008833,-0.217759694
Bhavan Art Gallery,,E09000013,Hammersmith and Fulham,Commercial galleries,51.4897635,-0.207043431
Hidde van Seggelen Gallery,,E09000013,Hammersmith and Fulham,Commercial galleries,51.47758981,-0.188468243
The Cynthia Corbett Gallery,,E09000024,Merton,Commercial galleries,51.41551642,-0.222777327
Bank of England Museum,,E09000001,City and County of the City of London,Commercial galleries,51.51423596,-0.08769741
Carter Lane Gallery,,E09000001,City and County of the City of London,Commercial galleries,51.51294004,-0.100362438
EXHIBIT at Golden Lane Estate,,E09000001,City and County of the City of London,Commercial galleries,51.52244162,-0.097357719
Crypt Museum,,E09000001,City and County of the City of London,Commercial galleries,51.50933062,-0.079184154
Pumphouse Gallery,,E09000032,Wandsworth,Commercial galleries,51.47899807,-0.154785155
Sprout Community Arts,,E09000032,Wandsworth,Commercial galleries,51.42403173,-0.147203436
The Wandsworth Museum,,E09000032,Wandsworth,Commercial galleries,51.45713641,-0.200476775
Maestro Arts,,E09000032,Wandsworth,Commercial galleries,51.46186657,-0.198131335
Plus One Gallery,,E09000032,Wandsworth,Commercial galleries,51.46314652,-0.184908109
Foss Fine Art,,E09000032,Wandsworth,Commercial galleries,51.45707595,-0.165226698
Northcote Gallery Battersea,,E09000032,Wandsworth,Commercial galleries,51.4568778,-0.165781632
Kristin Hjellegjerde,,E09000032,Wandsworth,Commercial galleries,51.45981637,-0.188797413
Brent Artists Resource,,E09000005,Brent,Commercial galleries,51.54766993,-0.223790591
Crane Kalman,,E09000020,Kensington and Chelsea,Commercial galleries,51.49797105,-0.167302686
Hollywood Road Gallery,,E09000020,Kensington and Chelsea,Commercial galleries,51.48603842,-0.184691149
The Rowley Gallery,,E09000020,Kensington and Chelsea,Commercial galleries,51.50677826,-0.194775137
Japanese Gallery,,E09000020,Kensington and Chelsea,Commercial galleries,51.50532413,-0.193780733
Northcote Gallery Chelsea,,E09000020,Kensington and Chelsea,Commercial galleries,51.48604711,-0.171993135
Museum of Brands,,E09000020,Kensington and Chelsea,Commercial galleries,51.51637172,-0.211100471
James Harvey British Art,,E09000020,Kensington and Chelsea,Commercial galleries,51.48235595,-0.18091987
Doyle Devere,,E09000020,Kensington and Chelsea,Commercial galleries,51.51387222,-0.198789432
The Orangery,,E09000020,Kensington and Chelsea,Commercial galleries,51.50657126,-0.187765621
Tryon St,,E09000020,Kensington and Chelsea,Commercial galleries,51.49033075,-0.16292757
Lacey Contemporary,,E09000020,Kensington and Chelsea,Commercial galleries,51.51049446,-0.21017793
The Dot Project,,E09000020,Kensington and Chelsea,Commercial galleries,51.48979585,-0.175322819
Offer Waterman & Co,,E09000020,Kensington and Chelsea,Commercial galleries,51.48229148,-0.180821616
Cadogan Contemporary,,E09000020,Kensington and Chelsea,Commercial galleries,51.49251817,-0.176899574
The Muse,,E09000020,Kensington and Chelsea,Commercial galleries,51.51793441,-0.206844851
Medici Gallery (south Kensington),,E09000020,Kensington and Chelsea,Commercial galleries,51.49429238,-0.17360176
GGGallery,,E09000020,Kensington and Chelsea,Commercial galleries,51.51565025,-0.205666272
Richard Young Gallery,,E09000020,Kensington and Chelsea,Commercial galleries,51.50331161,-0.192125073
Hackelbury,,E09000020,Kensington and Chelsea,Commercial galleries,51.4990339,-0.185341716
The Foundry Gallery,,E09000020,Kensington and Chelsea,Commercial galleries,51.48438957,-0.172326746
The Little Black Gallery,,E09000020,Kensington and Chelsea,Commercial galleries,51.48591807,-0.179827516
Saatchi Gallery,,E09000020,Kensington and Chelsea,Commercial galleries,51.49060611,-0.158695809
Graffik Gallery,,E09000020,Kensington and Chelsea,Commercial galleries,51.51935509,-0.207423239
Flying Colours Gallery,,E09000020,Kensington and Chelsea,Commercial galleries,51.48881703,-0.166186221
Michael Hoppen Gallery,,E09000020,Kensington and Chelsea,Commercial galleries,51.48896733,-0.16602174
Richard Green 2,,E09000033,City of Westminster,Commercial galleries,51.51174868,-0.143624401
Skarstedt Gallery,,E09000033,City of Westminster,Commercial galleries,51.50711912,-0.140607813
Scream,,E09000033,City of Westminster,Commercial galleries,51.51671736,-0.138530388
Ben Brown Fine Arts,,E09000033,City of Westminster,Commercial galleries,51.51240247,-0.14601326
Marlborough Fine Art,,E09000033,City of Westminster,Commercial galleries,51.50856182,-0.140851674
Messum's,,E09000033,City of Westminster,Commercial galleries,51.51047708,-0.141407765
Serpentine Gallery,,E09000033,City of Westminster,Commercial galleries,51.50479035,-0.174983022
Frith Street Gallery,,E09000033,City of Westminster,Commercial galleries,51.51119847,-0.136997256
Sprovieri,,E09000033,City of Westminster,Commercial galleries,51.51112736,-0.139882479
Berloni,,E09000033,City of Westminster,Commercial galleries,51.51664592,-0.140262903
Chelsea Space,,E09000033,City of Westminster,Commercial galleries,51.49043866,-0.128235835
Olivier Malingue,,E09000033,City of Westminster,Commercial galleries,51.51149908,-0.144046728
Richard Green 1,,E09000033,City of Westminster,Commercial galleries,51.51131637,-0.143866806
Photographers' Gallery,,E09000033,City of Westminster,Commercial galleries,51.51492661,-0.139021402
The Aram Gallery,,E09000033,City of Westminster,Commercial galleries,51.51334636,-0.118879777
White Cube,,E09000033,City of Westminster,Commercial galleries,51.50761293,-0.137158001
Willow Gallery,,E09000033,City of Westminster,Commercial galleries,51.50734985,-0.137982205
Blain Southern,,E09000033,City of Westminster,Commercial galleries,51.51385681,-0.14301404
Albemarle Gallery,,E09000033,City of Westminster,Commercial galleries,51.50802785,-0.141204865
Queen's Gallery,,E09000033,City of Westminster,Commercial galleries,51.49971659,-0.142782303
Rosenfeld Porcini,,E09000033,City of Westminster,Commercial galleries,51.51852056,-0.135992049
Lisson Gallery 1,,E09000033,City of Westminster,Commercial galleries,51.52108621,-0.168132965
London Print Studio,,E09000033,City of Westminster,Commercial galleries,51.52568329,-0.205487907
Eykyn Maclean,,E09000033,City of Westminster,Commercial galleries,51.51238715,-0.142771184
Laurent Delaye Gallery,,E09000033,City of Westminster,Commercial galleries,51.51096719,-0.139989887
Pyms Gallery,,E09000033,City of Westminster,Commercial galleries,51.51031931,-0.148490157
Imitate Modern,,E09000033,City of Westminster,Commercial galleries,51.50643503,-0.146817616
Debut Contemporary,,E09000033,City of Westminster,Commercial galleries,51.51536058,-0.1932394
Mark Gallery,,E09000033,City of Westminster,Commercial galleries,51.51487653,-0.165528512
Halcyon Gallery I,,E09000033,City of Westminster,Commercial galleries,51.51139908,-0.143978736
PM/AM,,E09000033,City of Westminster,Commercial galleries,51.51823211,-0.166762924
Graham Hunter Gallery,,E09000033,City of Westminster,Commercial galleries,51.51994837,-0.156921045
Sims Reed Gallery,,E09000033,City of Westminster,Commercial galleries,51.50689268,-0.13878751
Getty Images Gallery,,E09000033,City of Westminster,Commercial galleries,51.51631333,-0.139137811
Sadie Coles HQ,,E09000033,City of Westminster,Commercial galleries,51.51231051,-0.139070425
Waddington Custot Galleries,,E09000033,City of Westminster,Commercial galleries,51.51011136,-0.141595592
Heartbreak,,E09000033,City of Westminster,Commercial galleries,51.51763338,-0.150960825
Bernard Jacobson Gallery,,E09000033,City of Westminster,Commercial galleries,51.51054821,-0.14192368
St Petersburg Gallery,,E09000033,City of Westminster,Commercial galleries,51.51054821,-0.14192368
Michael Werner Gallery,,E09000033,City of Westminster,Commercial galleries,51.511356,-0.156071866
Workplace Gallery,,E09000033,City of Westminster,Commercial galleries,51.51268978,-0.140870885
Paradise Row,,E09000033,City of Westminster,Commercial galleries,51.51762902,-0.135913155
Edel Assanti,,E09000033,City of Westminster,Commercial galleries,51.51762902,-0.135913155
Rook & Raven,,E09000033,City of Westminster,Commercial galleries,51.51682808,-0.133048779
Partners & Mucciaccia,,E09000033,City of Westminster,Commercial galleries,51.50785747,-0.141802637
James Hyman Fine Art,,E09000033,City of Westminster,Commercial galleries,51.51060475,-0.139817308
Hauser & Wirth 2,,E09000033,City of Westminster,Commercial galleries,51.51199619,-0.140798254
Great Western Studios,,E09000033,City of Westminster,Commercial galleries,51.52119908,-0.196309171
Aktis Gallery,,E09000033,City of Westminster,Commercial galleries,51.5062544,-0.139951351
Chris Beetles Photographs,,E09000033,City of Westminster,Commercial galleries,51.50919945,-0.137408568
Courtauld Institute of Art,,E09000033,City of Westminster,Commercial galleries,51.51092609,-0.117682481
"Pertwee,  Anderson & Gold",,E09000033,City of Westminster,Commercial galleries,51.51396457,-0.132243519
David Gill,,E09000033,City of Westminster,Commercial galleries,51.50677281,-0.13691849
Whitfield Fine Art,,E09000033,City of Westminster,Commercial galleries,51.51425616,-0.145519992
Thomas Dane Gallery,,E09000033,City of Westminster,Commercial galleries,51.50732231,-0.137544531
Victoria Miro Gallery II,,E09000033,City of Westminster,Commercial galleries,51.51289557,-0.143644049
Alison Jacques Gallery,,E09000033,City of Westminster,Commercial galleries,51.51747733,-0.136553551
Fold,,E09000033,City of Westminster,Commercial galleries,51.52053573,-0.139441298
Annely Juda Fine Art,,E09000033,City of Westminster,Commercial galleries,51.51425616,-0.145519992
Gagosian Gallery 2,,E09000033,City of Westminster,Commercial galleries,51.51105386,-0.147739782
Pace London 1,,E09000033,City of Westminster,Commercial galleries,51.50966523,-0.140114997
Asia House,,E09000033,City of Westminster,Commercial galleries,51.51970782,-0.146220948
Lisson Gallery 2,,E09000033,City of Westminster,Commercial galleries,51.52090312,-0.169653853
Rossi & Rossi,,E09000033,City of Westminster,Commercial galleries,51.50680169,-0.138171002
Fiumano Fine Art,,E09000033,City of Westminster,Commercial galleries,51.51443527,-0.165488599
Ambika P3,,E09000033,City of Westminster,Commercial galleries,51.52202475,-0.154574012
The Sherlock Holmes Museum,,E09000033,City of Westminster,Commercial galleries,51.52375095,-0.158554959
John Adams Fine Art,,E09000033,City of Westminster,Commercial galleries,51.49096854,-0.153149603
Eleven,,E09000033,City of Westminster,Commercial galleries,51.4943403,-0.147985498
The Osborne Studio Gallery,,E09000033,City of Westminster,Commercial galleries,51.49920604,-0.156591351
La Galleria,,E09000033,City of Westminster,Commercial galleries,51.50769985,-0.131880201
GRAD,,E09000033,City of Westminster,Commercial galleries,51.5174344,-0.140648764
Stephen Wiltshire Gallery,,E09000033,City of Westminster,Commercial galleries,51.50769851,-0.132072493
Panter and Hall,,E09000033,City of Westminster,Commercial galleries,51.50712873,-0.133286966
Alan Cristea Gallery,,E09000033,City of Westminster,Commercial galleries,51.50608666,-0.136182761
Institute of Contemporary Arts - ICA,,E09000033,City of Westminster,Commercial galleries,51.50641041,-0.131097181
Malcolm Fairley,,E09000033,City of Westminster,Commercial galleries,51.50637032,-0.138188595
Paisnel Gallery,,E09000033,City of Westminster,Commercial galleries,51.50675652,-0.138158434
Sladmore,,E09000033,City of Westminster,Commercial galleries,51.50775849,-0.139529801
Chris Beetles,,E09000033,City of Westminster,Commercial galleries,51.50712682,-0.138258614
Two Temple Place,,E09000033,City of Westminster,Commercial galleries,51.51160271,-0.112221343
Atlas Gallery,,E09000033,City of Westminster,Commercial galleries,51.51950107,-0.155353549
Fashion Space Gallery,,E09000033,City of Westminster,Commercial galleries,51.51564146,-0.14327292
