site_name,Cultural Venue Type,latitude,longitude
Reuters Archive,Archives,51.50435142,-0.020429416
Whitechapel Art Gallery,Archives,51.51614774,-0.070465394
Society for the Protection of Ancient Buildings,Archives,51.52020003,-0.078467148
Lasa,Archives,51.5170911,-0.070958811
Wilton's Music Hall,Archives,51.51061305,-0.066937948
Wapping Police Station Museum,Archives,51.50309221,-0.058596465
East London Mosque & London Muslim Centre Archive,Archives,51.51746961,-0.065552047
Tower Hamlets Local History Library and Archives,Archives,51.52381997,-0.042347199
V & A Museum of Childhood,Archives,51.52905531,-0.054881955
Unfinished Histories,Archives,51.52999312,-0.054495932
Matt's Gallery,Archives,51.51907944,-0.03580472
Live Art Development Agency's Study Room,Archives,51.54298591,-0.02211269
Historic Royal Palaces Architectural Drawings Archive,Archives,51.50827523,-0.076245514
"Royal Armouries Library, Tower of London",Archives,51.50827523,-0.076245514
Royal London Hospital Archives,Archives,51.51160555,-0.070412426
Royal Fusiliers Museum,Archives,51.50839276,-0.075188563
Lesbian and Gay Christian Movement,Archives,51.52636805,-0.061484047
HSBC Group Archives,Archives,51.50553219,-0.017395336
Crisis,Archives,51.51811045,-0.073885005
"London University: Queen Mary, University of London",Archives,51.52418885,-0.039664421
Royal College of Psychiatrists,Archives,51.51141648,-0.071098355
Living Streets,Archives,51.51708235,-0.070973594
Museum of London Docklands - Port and River Archive,Archives,51.50769779,-0.023152002
Sainsbury Archive,Archives,51.50769779,-0.023152002
Minority Rights Group,Archives,51.51744496,-0.073336543
Working Mens College,Archives,51.53523862,-0.136029812
Wellcome Collection,Archives,51.52589757,-0.133917455
English National Opera Archive,Archives,51.54618942,-0.190460152
London University: UCL School of Slavonic and East European Studies,Archives,51.52532328,-0.131735287
Magistrates Association,Archives,51.52259699,-0.140697861
Freud Museum,Archives,51.54842189,-0.177246355
Keats House,Archives,51.55556976,-0.16793018
London University: Senate House Library,Archives,51.52064362,-0.128698024
London Mathematical Society,Archives,51.52117742,-0.124394946
London University: Institute of Modern Languages Research,Archives,51.52064362,-0.128698024
London University: Institute of Classical Studies,Archives,51.52064362,-0.128698024
London University: Institute of Commonwealth Studies,Archives,51.52064362,-0.128698024
Liberal Judaism archives,Archives,51.52243218,-0.137677393
Egypt Exploration Society,Archives,51.52315343,-0.116947449
General Conference of the New Church,Archives,51.51792235,-0.122727011
Swedenborg Society,Archives,51.51792235,-0.122727011
"British Library, Music Collections",Archives,51.52998677,-0.126988356
British Library Corporate Archives,Archives,51.52998677,-0.126988356
British Library: Asian and African Studies,Archives,51.52998677,-0.126988356
"British Library, Modern English and Reader Services, Humanities and Social Sciences",Archives,51.52998677,-0.126988356
"British Library, Sound Archive",Archives,51.52998677,-0.126988356
"British Library, Map Library",Archives,51.52998677,-0.126988356
"British Library, Manuscript Collections",Archives,51.52998677,-0.126988356
Mary Ward Centre,Archives,51.52086587,-0.12178428
Hon Soc of Gray's Inn: Archives,Archives,51.51927701,-0.112437215
Humanist Library and Archives,Archives,51.51979404,-0.118311294
National Secular Society,Archives,51.51979404,-0.118311294
Paul Mellon Centre for Studies in British Art,Archives,51.51957157,-0.130269899
Royal College of Anaesthetists,Archives,51.51943761,-0.119637687
University College London Hospitals NHS Foundation Trust,Archives,51.52573661,-0.137369511
English Folk Dance and Song Society: Vaughan Williams Memorial Library,Archives,51.53810212,-0.149337866
Hampstead Museum,Archives,51.5581809,-0.175067341
Highgate Literary and Scientific Institution,Archives,51.57018179,-0.14839595
Royal College of Physicians of London,Archives,51.52574929,-0.144980746
History of Parliament,Archives,51.51928304,-0.124025969
Camden Local Studies and Archives Centre,Archives,51.52118201,-0.115702644
"Jewish Museum, London (fomerly Finchley)",Archives,51.53728156,-0.144641468
"Jewish Museum, London",Archives,51.53728156,-0.144641468
Religious Society of Friends Library,Archives,51.5262991,-0.132589142
BT Archives,Archives,51.51761085,-0.116758156
Royal African Society,Archives,51.52235179,-0.129233406
London University: School of Oriental and African Studies (SOAS),Archives,51.52235179,-0.129233406
Law Centres Federation,Archives,51.52395509,-0.139575757
Charles Dickens Museum,Archives,51.52360065,-0.116237045
London University: Institute of Advanced Legal Studies,Archives,51.52248482,-0.127426054
Library and Museum of Freemasonry,Archives,51.51516268,-0.121110979
Federation of Master Builders,Archives,51.5216858,-0.116835035
Royal Asiatic Society,Archives,51.52650623,-0.135435119
German Historical Institute London,Archives,51.51890444,-0.123969462
London University: Institute of Education,Archives,51.52297862,-0.127939155
London University: Institute of Archaeology,Archives,51.52491681,-0.131622188
Royal Anthropological Institute of Great Britain and Ireland,Archives,51.52384191,-0.139811022
International Brewers Guild,Archives,51.51830308,-0.10724526
Royal College of Paediatrics and Child Health,Archives,51.52071748,-0.115894802
Art Workers Guild,Archives,51.5214067,-0.122987281
Chartered Institute of Library and Information Professionals (CILIP),Archives,51.52030934,-0.131421658
British Humanist Association,Archives,51.51979395,-0.130116644
Newman Association,Archives,51.52051425,-0.116119411
The Artangel Trust,Archives,51.52297249,-0.110727484
Faber Archive,Archives,51.51922382,-0.12425903
Friends of the Hebrew University of Jerusalem,Archives,51.53747892,-0.144042224
British Heart Foundation,Archives,51.53344266,-0.139592511
National Council of Building Materials Producers,Archives,51.51965513,-0.131563761
London University: Warburg Institute,Archives,51.52327321,-0.130622753
National Institute for Social Work,Archives,51.52526291,-0.127384112
University College School,Archives,51.55350825,-0.181082008
British Museum: Department of Ancient Egypt and Sudan,Archives,51.51936411,-0.126847821
British Museum: Department of the Ancient Near East,Archives,51.51936411,-0.126847821
British Museum: Department of Prints and Drawings,Archives,51.51936411,-0.126847821
British Museum: Department of Greek and Roman Antiquities,Archives,51.51936411,-0.126847821
"British Museum: Department of Britain, Europe and Prehistory",Archives,51.51936411,-0.126847821
British Museum Ethnography Library,Archives,51.51936411,-0.126847821
British Museum Central Archive,Archives,51.51936411,-0.126847821
Highgate Cemetery,Archives,51.56691029,-0.146797338
London University: London School of Hygiene and Tropical Medicine,Archives,51.52092672,-0.130661227
Great Ormond Street Hospital Archives,Archives,51.52221155,-0.11989817
National Association of University and College Union,Archives,51.53514553,-0.139797015
London University: Birkbeck College,Archives,51.52189271,-0.130333352
Lincoln's Inn Archives,Archives,51.51643182,-0.114457444
CAMLIS (Complimentary and Alternative Medicine Library and Information Service) Archive,Archives,51.52174058,-0.121373486
National Housing Federation,Archives,51.51844721,-0.119563184
Royal Academy of Dramatic Art,Archives,51.52088928,-0.13226279
Sir John Soane's Museum,Archives,51.51699356,-0.117518714
Central School of Speech and Drama,Archives,51.54432753,-0.174179507
Ben Uri Art Society and Gallery,Archives,51.5375408,-0.185367081
Huguenot Library,Archives,51.52357126,-0.132398065
London University: University College Department of Egyptology,Archives,51.52357126,-0.132398065
Jewish Studies Library,Archives,51.52357126,-0.132398065
The Wiener Library for the Study of the Holocaust and Genocide,Archives,51.52160317,-0.127966757
London University: Institute for the Study of the Americas,Archives,51.52484364,-0.129852027
Royal Free Hospital Medical Library,Archives,51.55298126,-0.166288788
British Olympic Association,Archives,51.52004232,-0.136117275
"University College London (UCL) Queen Square Library, Archive and Museum",Archives,51.52259388,-0.122433912
Folklore Society Archives,Archives,51.5248441,-0.13326858
London University: University College London (UCL) Special Collections,Archives,51.5248441,-0.13326858
British Film Institute (BFI) National Archive,Archives,51.51785121,-0.132920441
Dr Williams's Library,Archives,51.52393564,-0.131561459
Congregational Library,Archives,51.52393564,-0.131561459
University of the Arts London: Central St Martins College of Art and Design,Archives,51.53538581,-0.125512168
Royal College of General Practitioners,Archives,51.52653977,-0.134150684
The Guinness Partnership,Archives,51.52599671,-0.139593415
National League of the Blind and Disabled,Archives,51.52884842,-0.119350731
Architectural Association Archives,Archives,51.51853136,-0.131018802
National Childbirth Trust,Archives,51.50593843,-0.269739395
Ealing Local History Centre,Archives,51.51233212,-0.302370117
Catholic Union of Great Britain,Archives,51.50441554,-0.248918069
Latymer Upper School,Archives,51.49273648,-0.237063395
Polish Library POSK,Archives,51.49351545,-0.237436695
William Morris Society,Archives,51.49058179,-0.235504366
Rogers Stirk Harbour + Partners,Archives,51.48362317,-0.224294009
St Paul's Girls' School,Archives,51.4951319,-0.218833263
Hammersmith and Fulham Archives and Local History Centre,Archives,51.49458469,-0.223666292
The Nutrition Society,Archives,51.49533778,-0.22470308
Society for Psychical Research,Archives,51.49391403,-0.210309174
National Federation of Women's Institutes,Archives,51.47223329,-0.203871557
V&A Archive of Art and Design,Archives,51.49641388,-0.213841724
V&A Department of Theatre and Performance,Archives,51.49641388,-0.213841724
Harrods Archive,Archives,51.49454912,-0.213626532
Baring Archive,Archives,51.51551699,-0.089226292
LexisNexis Butterworths,Archives,51.51631266,-0.111522065
Employment Policy Institute,Archives,51.51506783,-0.075887122
Prudential Group Archives,Archives,51.51039098,-0.089040241
Chartered Insitute of Taxation,Archives,51.51520531,-0.110328375
Foreign and Commonwealth Office Library,Archives,51.51520531,-0.110328375
St Bride Library,Archives,51.51349205,-0.105023493
The Rothschild Archive,Archives,51.51231529,-0.089031735
Worshipful Society of Apothecaries,Archives,51.51289096,-0.102886619
Carpenters Company,Archives,51.51669821,-0.085936685
Clothworkers Company,Archives,51.51152987,-0.081138094
Drapers' Company,Archives,51.51523928,-0.0863582
Mercers' Company Archives,Archives,51.51416686,-0.091735853
Saddlers Company,Archives,51.51488611,-0.095597259
National Association of Citizens Advice Bureaux,Archives,51.51747107,-0.097507308
C Hoare & Co,Archives,51.51377693,-0.1096323
Leathersellers Company,Archives,51.51500491,-0.081543569
Lloyds Banking Group Archives (London),Archives,51.51876949,-0.080069711
Bishopsgate Institute,Archives,51.5187111,-0.079250559
City of London Club,Archives,51.5149871,-0.08468246
Schroder Archive,Archives,51.5160036,-0.095190298
Baltic Exchange,Archives,51.51497647,-0.08018605
Lloyd's,Archives,51.51301401,-0.082257511
Dr Johnson's House,Archives,51.51503546,-0.108159067
Royal Literary Fund,Archives,51.51480141,-0.108702042
City of London School,Archives,51.51102633,-0.099361206
Institute of Actuaries,Archives,51.51782273,-0.111371942
College of Arms,Archives,51.51223825,-0.098676614
City of London Police Museum,Archives,51.51667263,-0.093749855
Council for the Advancement of Arab-British Understanding,Archives,51.51514167,-0.108053774
Mission to Seafarers,Archives,51.51118565,-0.092004606
Museum of London Library,Archives,51.5177984,-0.096066695
Bank of England Archive,Archives,51.51418809,-0.088621829
Stationers Company,Archives,51.51428045,-0.101502905
Institute of Chartered Accountants in England and Wales,Archives,51.51639409,-0.088241168
St Bartholomew's Hospital Archives,Archives,51.51775143,-0.100378378
Barbers Company,Archives,51.5180174,-0.094601756
Lloyd's Register Foundation Heritage & Education Centre,Archives,51.51250665,-0.078733423
National Council for Housing and Planning,Archives,51.51031626,-0.084460529
Royal Town Planning Institute,Archives,51.51031626,-0.084460529
Salters Company,Archives,51.51823014,-0.092200156
"St Paul's Cathedral, Architectural Archive",Archives,51.51430322,-0.099022976
Inner Temple Library,Archives,51.51291913,-0.109644767
Inner Temple Archives,Archives,51.51279865,-0.109981236
Goldsmiths Company,Archives,51.51589613,-0.095771311
British Red Cross Museum and Archives,Archives,51.51908359,-0.08858643
Middle Temple Library,Archives,51.51189777,-0.110998545
Fishmongers Company,Archives,51.50935936,-0.087541437
All Hallows by the Tower,Archives,51.50933062,-0.079184156
"Friars Minor, English Province Archives",Archives,51.53951262,0.024906099
Franciscan Archives English Province,Archives,51.53951262,0.024906099
Newham Archive and Local Studies Library,Archives,51.54277052,0.004355963
Mind for Better Mental Health,Archives,51.54023648,0.001086514
Movement for Christian Democracy,Archives,51.51524569,0.013149883
University of East London: Library and Learning Centre,Archives,51.50748597,0.064786409
"Theatre Royal, Stratford East",Archives,51.54255806,0.001000881
Royal Medical Benevolent Fund,Archives,51.42115468,-0.201544771
University of the Arts London: Wimbledon College of Art,Archives,51.41350764,-0.21213045
Wimbledon Society Museum of Local History,Archives,51.42361787,-0.216205974
Royal British Nurses Association,Archives,51.38293674,-0.215506154
Wimbledon Lawn Tennis Museum: Kenneth Ritchie Wimbledon Library,Archives,51.43449072,-0.2144734
University of Roehampton: Archives and Special Collections,Archives,51.45736039,-0.244932558
De Morgan Centre,Archives,51.45713641,-0.200476777
Wandsworth Museum,Archives,51.45713641,-0.200476777
Book Trust,Archives,51.45797137,-0.184048133
Foster + Partners,Archives,51.48076694,-0.168381317
Shaftesbury Young People,Archives,51.45349738,-0.17390549
University of Roehampton: Southlands College Archives,Archives,51.45954775,-0.244474421
"Queen Mary's Hospital, Roehampton",Archives,51.45554949,-0.241705797
Wandsworth Heritage Service,Archives,51.4640283,-0.164141817
Royal Academy of Dance: Philip Richardson Library,Archives,51.47430671,-0.17507667
Franco-British Society,Archives,51.47225363,-0.163379903
Emanuel School,Archives,51.45665326,-0.173290163
"St George's Archives and Special Collections, University of London",Archives,51.42729284,-0.174518631
Leo Baeck College Library,Archives,51.59527665,-0.189326369
"Royal Air Force Museum, Department of Research and Information Services",Archives,51.59894703,-0.238163901
King Alfred School,Archives,51.56967063,-0.184458946
Barnet Museum,Archives,51.65287654,-0.202296261
Middlesex University: Museum of Domestic Design & Architecture Collections Centre,Archives,51.59604884,-0.241636786
Middlesex University: Sheppard Library,Archives,51.5904557,-0.22959233
Jews College Library,Archives,51.58821378,-0.213739211
Barnet Local Studies and Archives,Archives,51.58859385,-0.228932832
Brent Museum and Archives,Archives,51.5466504,-0.228921501
Enfield Local Studies Library and Archive,Archives,51.65031766,-0.081118167
Broomfield House Museum,Archives,51.61844628,-0.11800416
Brompton Oratory,Archives,51.49747072,-0.169815218
Chelsea and Westminster Hospital Archives,Archives,51.48425239,-0.181434976
Leighton House Museum,Archives,51.49858782,-0.203095135
Commonwealth Institute,Archives,51.49987443,-0.200159027
London University: Heythrop College,Archives,51.49946248,-0.1902477
"Offer, Watermann & Co",Archives,51.48229148,-0.180821618
Royal British Society of Sculptors,Archives,51.49173139,-0.179509541
State Apartments and Court Dress Collection: Kensington Palace,Archives,51.50519934,-0.188021818
National Army Museum Templer Study Centre,Archives,51.48622897,-0.160337437
Chelsea Physic Garden,Archives,51.48457384,-0.162251549
Chelsea Library,Archives,51.48747216,-0.168170333
Eighteen Stafford Terrace: Sambourne Family Archive,Archives,51.50045223,-0.196840681
"National Art Library, Victoria & Albert Museum",Archives,51.49690228,-0.172098033
"Victoria & Albert Museum, Department of Designs, Prints and Drawings",Archives,51.49690228,-0.172098033
Royal Institute of British Architects,Archives,51.49690228,-0.172098033
"Victoria & Albert Museum, Department of Textiles and Dress",Archives,51.49690228,-0.172098033
Natural History Museum Library and Archives,Archives,51.49656438,-0.176867722
Armenian Institute,Archives,51.49955292,-0.193331863
Kensington and Chelsea Libraries and Arts Service,Archives,51.50141889,-0.194406095
Writers and Scholars Educational Trust (Index on Censorship),Archives,51.52727965,-0.108473109
Survival International,Archives,51.52292435,-0.098289009
International PEN,Archives,51.5230092,-0.098530535
Society of Genealogists,Archives,51.5226949,-0.098558049
Honourable Artillery Company,Archives,51.52301548,-0.088410608
Marx Memorial Library,Archives,51.52296494,-0.105797743
Corps of Commissionaires (Corps Security),Archives,51.52003774,-0.102733663
"Amnesty International, International Secretariat",Archives,51.52582065,-0.111128528
Royal Statistical Society,Archives,51.52252542,-0.090896162
Royal National Institute for the Deaf,Archives,51.52448381,-0.088565323
Mencap,Archives,51.52387977,-0.095654351
Scope (formerly the Spastics Society),Archives,51.54710287,-0.118742027
Guildhall Library Manuscripts Section,Archives,51.52537595,-0.107528493
London Metropolitan Archives: City of London,Archives,51.52537595,-0.107528493
"City, University of London",Archives,51.52770618,-0.102587756
Prison Reform Trust,Archives,51.52385619,-0.100297203
Legal Action Group,Archives,51.53119215,-0.119701061
Association for the Conservation of Energy,Archives,51.53567982,-0.096863134
UKCISA: UK Council for International Student Affairs,Archives,51.53662962,-0.104422713
Museum of Order of St John,Archives,51.52192262,-0.10251114
British Psychological Society: History of Psychology Centre,Archives,51.52319332,-0.086082254
Tavistock Institute of Human Relations,Archives,51.52319332,-0.086082254
Working Men's Club & Institute Union Ltd,Archives,51.54566034,-0.103441508
British Deaf Association,Archives,51.5223107,-0.086551737
Save the Children UK,Archives,51.5207651,-0.102112419
National Council for Voluntary Youth Services,Archives,51.5330567,-0.106474468
Guardian News & Media Archive (formerly the Newsroom),Archives,51.53499869,-0.121548397
ActionAid Central Archive,Archives,51.56568099,-0.135607243
Evangelical Alliance,Archives,51.53708312,-0.119746587
National Council of Voluntary Child Care Organisations,Archives,51.52925214,-0.101427729
Church Times,Archives,51.52353627,-0.094991154
Islington Local History Centre,Archives,51.52648755,-0.104527002
Community Service Volunteers,Archives,51.53092502,-0.11818378
Fields in Trust (formerly the National Playing Fields Association),Archives,51.53442884,-0.121903503
London Borough of Sutton: Archives & Local Studies,Archives,51.36207339,-0.195154616
Medical Defence Union,Archives,51.50584065,-0.104000959
University of the Arts London: University Archives and Special Collections,Archives,51.4949151,-0.101818139
University of the Arts London: London College of Communication,Archives,51.4949151,-0.101818139
Mental Health Foundation,Archives,51.50844093,-0.10672454
Confederation of Indian Organisations (UK),Archives,51.49843095,-0.105691744
United Medical and Dental Schools: The Wills Library,Archives,51.50345369,-0.08824992
Imperial War Museum Film Archive,Archives,51.49452227,-0.106444522
Imperial War Museum Photograph Archive,Archives,51.49452227,-0.106444522
Salvation Army International Heritage Centre,Archives,51.46754133,-0.089275363
News UK Archive,Archives,51.50542632,-0.087719169
Society of Chiropodists and Podiatrists,Archives,51.5004366,-0.078074266
United Society for the Propagation of the Gospel,Archives,51.50330287,-0.101109232
London South Bank University Archives Centre,Archives,51.49870595,-0.101742556
Electoral Reform Society of Great Britain and Ireland,Archives,51.50515771,-0.102919768
Royal Commonwealth Ex-Services League,Archives,51.50196215,-0.091640797
Southwark Local History Library and Archive,Archives,51.50176866,-0.091908241
Russo-British Chamber of Commerce,Archives,51.50498866,-0.093603703
National Osteopathic Archive,Archives,51.50008115,-0.094312879
British School of Osteopathy,Archives,51.50008115,-0.094312879
Imperial War Museum Department of Documents,Archives,51.49600948,-0.108327792
Imperial War Museum Sound Archive,Archives,51.49600948,-0.108327792
DayCare Trust,Archives,51.49529754,-0.102666646
Bankside Gallery,Archives,51.50819212,-0.100934689
Shakespeare's Globe Library and Archives,Archives,51.50811239,-0.09657156
Chartered Institute of Journalists,Archives,51.49677063,-0.051027719
Action for Blind People,Archives,51.48468217,-0.062835752
Dulwich College Archive,Archives,51.44028029,-0.085018121
Dulwich Picture Gallery,Archives,51.4459777,-0.086420365
Alleyn's School Archive,Archives,51.45478129,-0.081993244
South London Gallery,Archives,51.47428603,-0.079749725
James Allen's Girls' School,Archives,51.45542039,-0.085528085
Royal British Legion,Archives,51.50216782,-0.092122101
The Children's Society Records and Archive Centre,Archives,51.49419634,-0.062821182
University of the Arts London: Camberwell College of Arts,Archives,51.47411741,-0.079886404
Society of Radiographers,Archives,51.50165493,-0.070674501
London Wildlife Trust,Archives,51.5038528,-0.101749191
Co-operative Party,Archives,51.50207687,-0.085987748
Alexandra Park and Palace Charitable Trust,Archives,51.59448347,-0.130501429
Moravian Church Archive and Library,Archives,51.58751364,-0.134410693
Evangelical Library,Archives,51.60960732,-0.13437207
George Padmore Institute,Archives,51.56813088,-0.109447471
Highgate School Archives,Archives,51.57220174,-0.149324045
Haringey Archive Service,Archives,51.5991501,-0.075440905
Railfuture,Archives,51.54712954,-0.074981487
Campaign for Better Transport ,Archives,51.5319723,-0.096152741
British Plastics Federation,Archives,51.52631281,-0.082722063
Alpine Club Archives,Archives,51.52591939,-0.080662628
Geffrye Museum,Archives,51.53155722,-0.076244067
National Society for the Prevention of Cruelty to Children,Archives,51.52340481,-0.080126923
Livability (Shaftesbury Society),Archives,51.52326552,-0.081149086
Museum of London: London Archaeological Archive and Research Centre,Archives,51.53473431,-0.090702331
"Hackney Public Libraries, Stoke Newington District Library",Archives,51.5616189,-0.082795826
The Wyndham Ashworth Archive,Archives,51.49154783,-0.120555522
Prospect,Archives,51.50217833,-0.116329069
"Cinema Museum, Ronald Grant Archive",Archives,51.49228045,-0.105168913
Topolski Century,Archives,51.50484918,-0.115769002
Black Cultural Archives,Archives,51.46051638,-0.114572316
Lambeth Archives,Archives,51.47129501,-0.105390235
European Movement,Archives,51.49222021,-0.11986521
International Fund for Animal Welfare Charitable Trust,Archives,51.48796534,-0.123713335
Ramblers Association,Archives,51.48796534,-0.123713335
King's College London: St Thomas' House Library,Archives,51.49948958,-0.118384483
Marine Society,Archives,51.49554589,-0.116400357
Sea Cadet Association,Archives,51.49554589,-0.116400357
Garden Museum Archives,Archives,51.49504923,-0.12019536
Rambert Dance Company Archives,Archives,51.50617404,-0.113523269
Countryside Alliance,Archives,51.48681908,-0.111128096
D'Oyly Carte Opera Company,Archives,51.48847861,-0.11087226
Sir Arthur Sullivan Society,Archives,51.44132765,-0.128128304
Society for Cooperation in Russian and Soviet Studies,Archives,51.4692849,-0.112903029
World Development Movement,Archives,51.46394243,-0.113972754
Catholic Truth Society,Archives,51.48531584,-0.120552493
Type Museum,Archives,51.47344231,-0.115870702
Socialist Party of Great Britain,Archives,51.46389204,-0.132733683
Musicians Union,Archives,51.47964474,-0.115154428
United Medical and Dental Schools: St Thomas's Hospital,Archives,51.49699222,-0.120230644
"British Film Institute, Special Collections",Archives,51.5069462,-0.115937366
Hayward Gallery Library and Archives,Archives,51.50613299,-0.115444817
Southbank Centre Archive,Archives,51.50576807,-0.116800006
National Theatre Archive,Archives,51.50233994,-0.10885803
Greenwich Heritage Centre,Archives,51.49430805,0.069422401
National Maritime Museum: The Caird Library and Archive,Archives,51.48094088,-0.005215641
University of Greenwich,Archives,51.48296792,-0.006397414
EMI Group Archive Trust,Archives,51.5081604,-0.430243685
London School of Theology,Archives,51.61294959,-0.431728976
Brunel University Archives,Archives,51.53662881,-0.471007019
British Airways Heritage Collection,Archives,51.48549094,-0.487020906
"Hillingdon Local Studies, Archives and Museums Service",Archives,51.54518515,-0.478276716
SADAA (South Asian Diaspora Arts Archive),Archives,51.53283992,-0.472835336
Brunel University Library,Archives,51.53283992,-0.472835336
Lewisham Local History and Archives Centre,Archives,51.4592745,-0.011657207
IRIE! dance theatre,Archives,51.47785681,-0.035301972
MAKE Resource Centre Collections (formerly the Women's Art Library),Archives,51.47414396,-0.035375199
London University: Goldsmiths Library: Special Collections and Archives,Archives,51.47414396,-0.035375199
Horniman Museum and Gardens,Archives,51.44113087,-0.060736392
Illustrated London News Picture Library,Archives,51.46670535,0.006662793
Bible Churchmens Missionary Society,Archives,51.46925434,-0.026960722
Trinity Laban Conservatoire of Music and Dance: Laban Archive,Archives,51.48032533,-0.019007985
Haberdashers' Aske's Federation Trust: Hatcham College,Archives,51.46768411,-0.042722194
Royal Institution of Great Britain,Archives,51.50994668,-0.14255344
Institution of Mechanical Engineers Archive,Archives,51.50120342,-0.129955923
Girlguiding UK,Archives,51.49875796,-0.143008591
The Theatres Trust Resource Centre,Archives,51.51060881,-0.12820152
National Institute of Economic and Social Research,Archives,51.49570564,-0.128063247
Blind Veterans UK,Archives,51.52012515,-0.164755341
Royal Humane Society,Archives,51.51055883,-0.118893777
University of Westminster Archives,Archives,51.51819661,-0.141078952
Royal Academy of Music Library,Archives,51.52349886,-0.151674537
Tate Gallery Archive,Archives,51.49087146,-0.127180936
Royal Commission for the Exhibition of 1851,Archives,51.49874348,-0.177630777
Zoological Society of London,Archives,51.53572042,-0.155706918
Royal Over-Seas League,Archives,51.50631997,-0.140683595
Parliamentary Archives,Archives,51.49984153,-0.124637491
Association of Directors of Adult Social Services,Archives,51.49557688,-0.126757514
French Protestant Church,Archives,51.51580427,-0.133133904
London Library,Archives,51.50734035,-0.136981791
Royal Institute of International Affairs,Archives,51.50778656,-0.136199821
Royal Opera House Collections,Archives,51.51304711,-0.122653705
"RSA (The Royal Society for the Encouragement of Arts, Manufactures and Commerce)",Archives,51.50939707,-0.122717356
Royal Institution of Naval Architects,Archives,51.50743401,-0.125363147
Royal Society,Archives,51.50587456,-0.132459245
Law Society of England and Wales,Archives,51.51495084,-0.111837845
Imperial College Archives and Corporate Records Unit,Archives,51.49886271,-0.174888563
Science Museum Library (Documentation),Archives,51.49832104,-0.178223934
University of the Arts London: Chelsea College of Art and Design,Archives,51.49055367,-0.129232572
National Liberal Club,Archives,51.50604245,-0.123820779
Royal Society of Medicine,Archives,51.51600691,-0.147048706
Radio Centre,Archives,51.51256293,-0.131191151
Chemical Industries Association,Archives,51.49575664,-0.126188277
"London University: London School of Economics, The Women's Library",Archives,51.51483618,-0.11589258
British Universities Film and Video Council,Archives,51.51637417,-0.137304849
General Dental Council,Archives,51.51979279,-0.148754417
Wallace Collection,Archives,51.51716928,-0.152896625
Building Societies Association,Archives,51.51389915,-0.118583158
Commonwealth Parliamentary Association,Archives,51.49644332,-0.126390616
Royal National Institute for the Blind,Archives,51.51655711,-0.14090071
Finance and Leasing Association,Archives,51.51371733,-0.118460941
Transport for London (TfL) Corporate Archives,Archives,51.49942609,-0.133501017
Incorporated Council of Law Reporting for England and Wales,Archives,51.51440862,-0.111672912
Victim Support National Centre,Archives,51.52097037,-0.143603839
Archives of the British Psychoanalytical Society,Archives,51.52664589,-0.194378265
Conservative Christian Fellowship,Archives,51.49272186,-0.125923818
Association of Anaesthetists of Great Britain and Ireland,Archives,51.51939349,-0.145109412
Garrick Club Library,Archives,51.51130593,-0.126241768
Royal Geographical Society,Archives,51.50150309,-0.175244098
Westminster School Archive,Archives,51.49820881,-0.128263203
St Vincent de Paul Society (England & Wales) Ltd,Archives,51.51862244,-0.152664835
Football Association,Archives,51.51516082,-0.13112801
Royal College of Pathologists,Archives,51.50580651,-0.133268985
London Transport Museum,Archives,51.5121249,-0.121221618
Air League,Archives,51.49984047,-0.132461109
Imperial War Museum: Churchill War Rooms,Archives,51.50217907,-0.129377362
Royal College of Obstetricians and Gynaecologists,Archives,51.52680999,-0.162093274
Canning House Library,Archives,51.5003496,-0.154398373
Anglo-Chilean Society,Archives,51.52207935,-0.146629122
Society of St John the Evangelist,Archives,51.49775347,-0.128469161
Reform Club,Archives,51.50660955,-0.13343789
London Business School Library,Archives,51.52658256,-0.161352782
Madame Tussaud's Ltd,Archives,51.5229671,-0.155026018
Marylebone Cricket Club Library,Archives,51.52943247,-0.17281502
Japan Society,Archives,51.49808833,-0.136509229
Cayzer Family Archive,Archives,51.49918072,-0.139043655
Grenadier Guards Regimental Archives,Archives,51.4999858,-0.137642078
Scots Guards Regimental Headquarters,Archives,51.4999858,-0.137642078
The Welsh Regiment,Archives,51.4999858,-0.137642078
Duchy of Cornwall Office,Archives,51.49993301,-0.141116576
Conservative Party Research Department,Archives,51.49813388,-0.132588528
Institute for European Environmental Policy,Archives,51.50034483,-0.133074443
Association of Conservative Clubs Ltd,Archives,51.50100242,-0.130886294
Advertising Association,Archives,51.49670957,-0.135196816
Channel 4 Document Archive,Archives,51.4957021,-0.132918466
City of Westminster Archives Centre,Archives,51.49755544,-0.130148527
Westminster Baptist Church,Archives,51.49499663,-0.131535466
Royal Horticultural Society Lindley Libraries,Archives,51.49436107,-0.134543574
Royal College of Veterinary Surgeons Trust,Archives,51.49497311,-0.12780514
Mothers' Union,Archives,51.49665845,-0.128600476
Institution of Civil Engineers,Archives,51.50110324,-0.128749716
ChurchCare Library,Archives,51.497938,-0.129326046
The Society of The Faith,Archives,51.49757121,-0.12831815
Westminster Abbey Library and Muniment Room,Archives,51.4990043,-0.127394947
Catholic Bishops' Conference of England and Wales,Archives,51.49106651,-0.144765532
Catholic Education Service,Archives,51.49106651,-0.144765532
Green Alliance,Archives,51.49269242,-0.142160353
Royal Society for Asian Affairs,Archives,51.49372918,-0.148010279
Society of Motor Manufacturers and Traders Ltd,Archives,51.50108697,-0.152682785
Royal Anglo-Belgian Club,Archives,51.50247195,-0.158981047
British-German Association,Archives,51.49860148,-0.151890056
Great Britain - China Centre,Archives,51.49860801,-0.155160323
"Institute of Materials, Minerals and Mining",Archives,51.50569129,-0.133374566
Plastics Historical Society,Archives,51.50569129,-0.133374566
Institute of Directors,Archives,51.50719177,-0.131598377
British Academy,Archives,51.5063498,-0.131243765
Town and Country Planning Association,Archives,51.50671003,-0.130148252
Civic Trust,Archives,51.50671003,-0.130148252
Federation of British Artists,Archives,51.50671003,-0.130148252
Athenaeum,Archives,51.50684074,-0.132707924
Royal Automobile Club,Archives,51.50592662,-0.135166189
Commonwealth Secretariat,Archives,51.50514791,-0.135961714
Institute of Contemporary Arts,Archives,51.50638923,-0.130896308
Royal Albert Hall Archive,Archives,51.50126863,-0.17751559
Royal College of Music,Archives,51.4992805,-0.176888956
Royal College of Art,Archives,51.50135507,-0.178448688
English National Ballet Archives,Archives,51.50074685,-0.17866026
"London University: London School of Economics Library, Archives and Special Collections",Archives,51.51483618,-0.11589258
Royal College of Surgeons of England,Archives,51.51528552,-0.11587403
Food and Drink Federation,Archives,51.51270833,-0.12003022
Duchy of Lancaster Office,Archives,51.51013113,-0.118579941
National Portrait Gallery,Archives,51.5093988,-0.128452893
British Actors' Equity Association,Archives,51.51208035,-0.127997054
National Gallery Research Centre,Archives,51.50909835,-0.127658197
Institution of Engineering and Technology (IET) Archives,Archives,51.51028947,-0.119481331
Institution of Incorporated Engineers,Archives,51.51028947,-0.119481331
Savoy Archives,Archives,51.50994545,-0.119899019
Coutts & Co,Archives,51.50910072,-0.124992068
London University: Courtauld Institute of Art,Archives,51.51102034,-0.117952415
Royal Society of Literature,Archives,51.51102034,-0.117952415
Wigmore Hall,Archives,51.51665556,-0.148261914
British Veterinary Association,Archives,51.51901537,-0.146220252
Royal College of Midwives Archives,Archives,51.51936074,-0.146451262
Howard de Walden Estates Ltd,Archives,51.51794832,-0.146984288
Palestine Exploration Fund,Archives,51.51676904,-0.150894955
Alfred Dunhill Museum and Archive,Archives,51.5163984,-0.151342371
British Dental Association Museum,Archives,51.5185766,-0.148616377
Archives of the Royal Philatelic Society London,Archives,51.52147742,-0.150084306
Institute of Physics,Archives,51.52168834,-0.145217928
Nursing and Midwifery Council,Archives,51.51956538,-0.145174496
Medical Research Council,Archives,51.52278226,-0.147292501
British Institute of Radiology,Archives,51.52001346,-0.144507634
Landscape Institute,Archives,51.51690058,-0.141578562
Performing Right Society Archives,Archives,51.5184036,-0.137121112
Royal Astronomical Society Library,Archives,51.50909914,-0.139576037
Society of Antiquaries of London,Archives,51.50909914,-0.139576037
Royal Academy of Arts,Archives,51.50909914,-0.139576037
Geologists Association,Archives,51.50909914,-0.139576037
Royal Society of Chemistry,Archives,51.50909914,-0.139576037
Linnean Society of London,Archives,51.50909914,-0.139576037
Geological Society of London,Archives,51.50909914,-0.139576037
British Board of Film Classification,Archives,51.51533741,-0.133181828
Agnew's,Archives,51.51005319,-0.143601127
English-Speaking Union of the Commonwealth,Archives,51.50786441,-0.146788412
Arab-British Chamber of Commerce,Archives,51.51042165,-0.153270578
Handel House Trust,Archives,51.51296728,-0.145903845
Gimpel Fils,Archives,51.51195324,-0.14774652
Institute of Brewing & Distilling,Archives,51.50689961,-0.145487425
Electrical Contractors' Association,Archives,51.51178125,-0.192055219
National Campaign for Nursery Education,Archives,51.48659594,-0.132570322
British Retail Consortium,Archives,51.50031567,-0.131807714
Chartered Institute of Public Finance and Accountancy,Archives,51.50874887,-0.122671958
British Council,Archives,51.50699994,-0.129718478
Imperial College Healthcare NHS Trust Archives,Archives,51.51697102,-0.173544641
Alexander Fleming Laboratory Museum,Archives,51.51697102,-0.173544641
Anthroposophical Society in Great Britain,Archives,51.52489743,-0.160555743
JCA Charitable Foundation,Archives,51.496849,-0.142493071
Harrow School Archives,Archives,51.57228208,-0.337383023
Society of the Divine Saviour (Salvatorians),Archives,51.60015881,-0.337389687
North London Collegiate School,Archives,51.61417689,-0.2947011
Harrow Local History Collection,Archives,51.59406082,-0.352613082
National Air Traffic Services Ltd,Archives,51.48044982,-0.412330588
Hounslow and Feltham Local Studies Service,Archives,51.44636331,-0.411070417
London Museum of Water & Steam,Archives,51.48905549,-0.290517573
Leprosy Mission International,Archives,51.48961264,-0.309043989
Chiswick Library Local Studies Service,Archives,51.49169574,-0.261085466
GlaxoSmithKline Heritage Archives,Archives,51.48869905,-0.315612974
Gunnersbury Park Museum,Archives,51.49954349,-0.286321449
Orleans House Gallery,Archives,51.44733169,-0.319072216
St Paul's School Archives,Archives,51.48769585,-0.237417739
World Rugby Museum,Archives,51.45564884,-0.341739408
"Surrey University: St Mary's College, Strawberry Hill",Archives,51.43615142,-0.335885113
Bexley Local Studies and Archive Centre,Archives,51.45599566,0.143775809
Waltham Forest Archives,Archives,51.58401371,-0.012739358
William Morris Gallery,Archives,51.59130071,-0.020376611
Chartered Insurance Institute,Archives,51.59393333,0.022654036
Spurgeon's College,Archives,51.40643282,-0.086202504
Age Concern,Archives,51.40683553,-0.120521531
ART AND CRAFT STUDIOS,Artists workspaces,51.46693812,-0.332369119
Pavilion Studios,Artists workspaces,51.48079098,-0.256102401
Artists workspaces unnamed,Artists workspaces,51.48224975,-0.305388834
The Forge / Diesel House Studios,Artists workspaces,51.48905549,-0.290517573
Stockwell Road,Artists workspaces,51.46469069,-0.114647355
Artists workspaces unnamed,Artists workspaces,51.46498994,-0.102541588
Arch 258,Artists workspaces,51.4650893,-0.101457693
STUDIO 27,Artists workspaces,51.4663483,-0.098684343
coldharbour studios,Artists workspaces,51.4663483,-0.098684343
Bread & Roses,Artists workspaces,51.46766401,-0.137623387
Artists workspaces unnamed,Artists workspaces,51.46814799,-0.113223473
Glassyard,Artists workspaces,51.4688417,-0.120581162
Artists workspaces unnamed,Artists workspaces,51.47371047,-0.13248182
Artists workspaces unnamed,Artists workspaces,51.48513475,-0.11543231
Studio 180,Artists workspaces,51.49568915,-0.115874653
Makespace studios,Artists workspaces,51.49863391,-0.113261782
Empire Arches,Artists workspaces,51.42278226,-0.138149048
Carlew House,Artists workspaces,51.43040236,-0.100809816
Artists workspaces unnamed,Artists workspaces,51.43431391,-0.104676051
Streatham Hill,Artists workspaces,51.44056664,-0.124965017
Ongean Studios,Artists workspaces,51.44959481,-0.100359001
Artists workspaces unnamed,Artists workspaces,51.46197333,-0.134222761
Brixton Village,Artists workspaces,51.46254928,-0.111784377
Bureau Of Silly Ideas,Artists workspaces,51.46283153,-0.111441616
Pipeline Projects,Artists workspaces,51.46791673,-0.218611754
Artists workspaces unnamed,Artists workspaces,51.47101893,-0.156330777
Nine Elms,Artists workspaces,51.47990872,-0.138775447
Wandsworth Plain,Artists workspaces,51.45787306,-0.194574699
Wimbledon Art Studios,Artists workspaces,51.43253345,-0.188293862
Artists workspaces unnamed,Artists workspaces,51.45787306,-0.194574699
Artists workspaces unnamed,Artists workspaces,51.46813197,-0.074090545
Artists workspaces unnamed,Artists workspaces,51.46985233,-0.068791459
Artists workspaces unnamed,Artists workspaces,51.46999995,-0.065747142
Artists workspaces unnamed,Artists workspaces,51.47308408,-0.081585729
Artists workspaces unnamed,Artists workspaces,51.4754813,-0.065486485
Havil Street,Artists workspaces,51.4758599,-0.083053318
3-5 Latona Road,Artists workspaces,51.48194983,-0.071103315
7-17 Latona Road,Artists workspaces,51.48194983,-0.071103315
Galleria,Artists workspaces,51.48202767,-0.073649245
Haymerle,Artists workspaces,51.48249513,-0.069812888
Ilderton Road,Artists workspaces,51.48319987,-0.054242484
Toaster factory ,Artists workspaces,51.4833284,-0.054942753
Artists workspaces unnamed,Artists workspaces,51.48360739,-0.071278223
Penarth Centre,Artists workspaces,51.48369637,-0.054898283
Chaplin Centre,Artists workspaces,51.48835522,-0.086620189
Artists workspaces unnamed,Artists workspaces,51.48835522,-0.086620189
Artists workspaces unnamed,Artists workspaces,51.4886017,-0.096793913
Artists workspaces unnamed,Artists workspaces,51.48957529,-0.100268165
Artists workspaces unnamed,Artists workspaces,51.48966933,-0.101632723
Artists workspaces unnamed,Artists workspaces,51.49061133,-0.100383562
Highline,Artists workspaces,51.49174915,-0.099010959
Artists workspaces unnamed,Artists workspaces,51.49426019,-0.079270584
Artists workspaces unnamed,Artists workspaces,51.49461357,-0.090997012
Artists workspaces unnamed,Artists workspaces,51.49434755,-0.073086554
TOWER BRIDGE BUSINESS COMPLEX,Artists workspaces,51.49419634,-0.062821182
Artists workspaces unnamed,Artists workspaces,51.49690542,-0.062958383
Artists workspaces unnamed,Artists workspaces,51.49882177,-0.095950285
Artists workspaces unnamed,Artists workspaces,51.50316867,-0.097267573
Artists workspaces unnamed,Artists workspaces,51.5323504,-0.107844697
Peabody Yard,Artists workspaces,51.53893654,-0.096395539
Artists workspaces unnamed,Artists workspaces,51.55218806,-0.093967122
Artists workspaces unnamed,Artists workspaces,51.55994394,-0.11368203
Archway,Artists workspaces,51.5651689,-0.133940039
Artists workspaces unnamed,Artists workspaces,51.56599723,-0.131179085
Artists workspaces unnamed,Artists workspaces,51.47148298,-0.030608277
Artists workspaces unnamed,Artists workspaces,51.47640151,-0.021496653
Art Hub Deptford,Artists workspaces,51.47711774,-0.020774389
Artists workspaces unnamed,Artists workspaces,51.47862647,-0.020651416
The Old Police Station,Artists workspaces,51.47944482,-0.031863687
Childers Street,Artists workspaces,51.48215624,-0.034814615
"Unit 10, Elizabeth Trading Estate",Artists workspaces,51.48279792,-0.04468175
JUNO ENTERPRISE CENTRE,Artists workspaces,51.48373076,-0.046154152
GUILD HOUSE FIRST FLOOR FRONT,Artists workspaces,51.48389554,-0.050107974
Forest Hill Library,Artists workspaces,51.43589345,-0.05618143
Louise House,Artists workspaces,51.43593313,-0.055863213
Artists workspaces unnamed,Artists workspaces,51.43970001,-0.054710451
Artists workspaces unnamed,Artists workspaces,51.44137819,-0.04639394
Catford Dek,Artists workspaces,51.4452943,-0.020380851
Leegate Studios,Artists workspaces,51.45619315,0.011887677
Ladywell Bridge,Artists workspaces,51.45683463,-0.018399094
Manor House,Artists workspaces,51.45731767,0.004509413
Norman House,Artists workspaces,51.4767242,-0.017176849
Borthwick St,Artists workspaces,51.48496902,-0.024778976
Azof,Artists workspaces,51.48899702,0.007934343
Artists workspaces unnamed,Artists workspaces,51.49125055,0.066501421
Artists workspaces unnamed,Artists workspaces,51.49280506,0.046945644
Thames-side studios,Artists workspaces,51.4943765,0.043965071
Art Hub HQ,Artists workspaces,51.49456696,0.039912483
Chisenhale Studios,Artists workspaces,51.53308803,-0.039708154
The Forge,Artists workspaces,51.48879019,-0.019159363
The Rum Factory ,Artists workspaces,51.50860472,-0.062944696
Artists workspaces unnamed,Artists workspaces,51.50824807,0.00848912
Artists workspaces unnamed,Artists workspaces,51.50844157,0.008742624
Cable Street Studios,Artists workspaces,51.51136698,-0.042996736
Art Space at St Katharines,Artists workspaces,51.51149426,-0.041463615
Fitzgerald House,Artists workspaces,51.51165109,-0.014953291
Limehouse Town Hall,Artists workspaces,51.51210827,-0.031406437
Ratcliffe Cross Street ,Artists workspaces,51.51289369,-0.042873615
Aberfieldy Street studios,Artists workspaces,51.51399396,-0.006218176
Artists workspaces unnamed,Artists workspaces,51.51666169,-0.072187702
Leven Road,Artists workspaces,51.51697596,-0.00758686
Copperfield Road,Artists workspaces,51.51907944,-0.03580472
The Fire Station,Artists workspaces,51.5196308,-0.009820501
Brickfield,Artists workspaces,51.52087781,-0.013888751
Limehouse Studios,Artists workspaces,51.52132162,-0.011952243
Empson Street,Artists workspaces,51.52169352,-0.012671208
No.w.here,Artists workspaces,51.52634659,-0.063993455
"The Crypt, St John on Bethnal Green",Artists workspaces,51.52758087,-0.054901582
Warren House,Artists workspaces,51.52734413,-0.017110529
Bow Road,Artists workspaces,51.52894539,-0.017675298
P1,Artists workspaces,51.52999642,-0.015481409
Unripe Banana,Artists workspaces,51.53095177,-0.068959633
Artists workspaces unnamed,Artists workspaces,51.53236861,-0.052419253
Robinson Road,Artists workspaces,51.53237471,-0.052418128
Unit 8,Artists workspaces,51.53478204,-0.020363184
Cell Projects,Artists workspaces,51.53396121,-0.058436075
Crown Close,Artists workspaces,51.53669093,-0.024779336
Britannia Works,Artists workspaces,51.53775378,-0.022743329
Swan Wharf,Artists workspaces,51.53773485,-0.021619376
Britannia Works,Artists workspaces,51.53777223,-0.022771369
Bridget Riley,Artists workspaces,51.53778211,-0.022754214
Stour Space,Artists workspaces,51.54018102,-0.021095068
Pearl & Coutts Studios,Artists workspaces,51.54283703,-0.022349895
White Post Lane,Artists workspaces,51.5428834,-0.023501627
Artists workspaces unnamed,Artists workspaces,51.50155042,-0.475855495
Colville Rd,Artists workspaces,51.49926169,-0.273723932
Vale Grove,Artists workspaces,51.50562536,-0.261336032
Artists workspaces unnamed,Artists workspaces,51.5109107,-0.32648899
Artists workspaces unnamed,Artists workspaces,51.5238037,-0.28239624
Queensrolla House,Artists workspaces,51.52628079,-0.269213144
Park Royal,Artists workspaces,51.52689275,-0.267416716
52-56 Standard Road,Artists workspaces,51.52830491,-0.263787706
Stewkley House,Artists workspaces,51.53620195,-0.317631001
Faroe Rd,Artists workspaces,51.49859209,-0.21515405
Hetley Rd,Artists workspaces,51.50456464,-0.2336672
Cadogen House,Artists workspaces,51.52659825,-0.236173141
Regents House,Artists workspaces,51.52826456,-0.243547884
Hythe Rd,Artists workspaces,51.52846055,-0.243425
Apex House,Artists workspaces,51.52853021,-0.244474766
Artists workspaces unnamed,Artists workspaces,51.49942723,-0.140978677
Somerset House Studios,Artists workspaces,51.51102034,-0.117952415
Artists workspaces unnamed,Artists workspaces,51.51611869,-0.163878723
Artists workspaces unnamed,Artists workspaces,51.52119908,-0.196309173
Artists workspaces unnamed,Artists workspaces,51.52954595,-0.198761663
Netil House,Artists workspaces,51.53756412,-0.057705951
Worship Street,Artists workspaces,51.5219245,-0.083829052
Artists workspaces unnamed,Artists workspaces,51.5270715,-0.081825164
Artists workspaces unnamed,Artists workspaces,51.53175017,-0.079782839
Sara Lane,Artists workspaces,51.53318399,-0.078929432
Timber Wharf -Block C,Artists workspaces,51.53589392,-0.075841961
Orsman Road,Artists workspaces,51.53614877,-0.078761295
Timber Wharf -Arches,Artists workspaces,51.53613283,-0.075856685
Studio Manifold,Artists workspaces,51.53613283,-0.075856685
Southgate Studios,Artists workspaces,51.53770691,-0.086049946
Hertford Road Studios,Artists workspaces,51.53872642,-0.078566189
Triangle,Artists workspaces,51.53844286,-0.057553178
The Rose Lipman Building ,Artists workspaces,51.53896522,-0.081613285
Artists workspaces unnamed,Artists workspaces,51.53954391,-0.075777387
Martello,Artists workspaces,51.54106797,-0.058595104
Victor House,Artists workspaces,51.54387614,-0.059831322
Artists workspaces unnamed,Artists workspaces,51.54439017,-0.022729636
Artists workspaces unnamed,Artists workspaces,51.54470612,-0.023869727
117 Wallis Road,Artists workspaces,51.544736,-0.023507873
Deborah House,Artists workspaces,51.5452378,-0.049216113
Limberg Films,Artists workspaces,51.54639144,-0.082613412
Belsham,Artists workspaces,51.5460622,-0.051748168
Dalston,Artists workspaces,51.54674074,-0.074305591
"Francis Upritchard, Daniel Silver and Martino Gamper",Artists workspaces,51.54645856,-0.051940816
Artists workspaces unnamed,Artists workspaces,51.54696352,-0.074728878
Sarabande Studios,Artists workspaces,51.53812812,-0.078822119
Artists workspaces unnamed,Artists workspaces,51.54737642,-0.05453345
Hatch,Artists workspaces,51.54734988,-0.042555944
Eastway,Artists workspaces,51.54716562,-0.029489133
Artists workspaces unnamed,Artists workspaces,51.54842551,-0.070671927
Unit 7 Stamford Works,Artists workspaces,51.54932153,-0.076490034
Matchmakers Wharf,Artists workspaces,51.55170739,-0.031124787
Artists workspaces unnamed,Artists workspaces,51.55243575,-0.074469156
Artists workspaces unnamed,Artists workspaces,51.55274138,-0.071181865
Cognative Collective,Artists workspaces,51.55290465,-0.055480648
Artists workspaces unnamed,Artists workspaces,51.55476372,-0.066754358
Stoke Newington,Artists workspaces,51.5616189,-0.082795826
Praxis N16,Artists workspaces,51.56555751,-0.072371521
Politi Arts,Artists workspaces,51.56602112,-0.074862551
Artists workspaces unnamed,Artists workspaces,51.56609206,-0.051397889
Murder Mile Studios,Artists workspaces,51.56617233,-0.05189949
Second Floor Studios & Arts,Artists workspaces,51.55954185,-0.283276549
Harrow Road,Artists workspaces,51.53083547,-0.230314269
Artists workspaces unnamed,Artists workspaces,51.53204976,-0.238701755
Artists workspaces unnamed,Artists workspaces,51.54461354,-0.273896663
Barham Park,Artists workspaces,51.55232008,-0.310992689
Honeypot Lane,Artists workspaces,51.59056614,-0.283819623
R>A>W Studios,Artists workspaces,51.50636087,0.074924925
Flying Angel,Artists workspaces,51.51019552,0.028044592
REAR OF 120,Artists workspaces,51.52640867,0.055983302
Napier Works,Artists workspaces,51.53075547,0.061946286
Warton House,Artists workspaces,51.53466962,-0.006814132
Rowse Close,Artists workspaces,51.5382833,-0.007261893
Stratford Studios,Artists workspaces,51.53885852,-0.000372685
Old Manor Park Library,Artists workspaces,51.55312932,0.053754443
Old Manor Park Library,Artists workspaces,51.55312932,0.053754443
Blechynden St,Artists workspaces,51.51448115,-0.21686752
Maxilla Walk,Artists workspaces,51.51629922,-0.215787564
The Crow's Nest,Artists workspaces,51.51638109,-0.219992996
Buspace Studios,Artists workspaces,51.52546573,-0.211262853
Artists workspaces unnamed,Artists workspaces,51.51718918,-0.105648316
Artists workspaces unnamed,Artists workspaces,51.52146685,-0.116080083
L-13 Light Industrial Workshop,Artists workspaces,51.52297272,-0.110741889
Cob Gallery,Artists workspaces,51.54116049,-0.138023016
Arlington,Artists workspaces,51.54304284,-0.151286158
Artists workspaces unnamed,Artists workspaces,51.54434518,-0.196835746
Ice House Court,Artists workspaces,51.53148797,0.075993916
Lea Bridge Road,Artists workspaces,51.56829694,-0.03476634
Artists workspaces unnamed,Artists workspaces,51.57047233,-0.038482444
Mentmore Studios,Artists workspaces,51.57054799,-0.039244046
Unit 1,Artists workspaces,51.57124191,-0.037179377
Artists workspaces unnamed,Artists workspaces,51.58518778,-0.003507516
Mitre Studios,Artists workspaces,51.58806078,-0.021282421
Artists workspaces unnamed,Artists workspaces,51.58860521,-0.028520497
Blackhorse Lane Studios,Artists workspaces,51.5913952,-0.039401366
Artists workspaces unnamed,Artists workspaces,51.59204955,-0.038737955
Lloyd Park Artist Studios,Artists workspaces,51.59340583,-0.022032233
"Park Sudios, Finsbury Park",Artists workspaces,51.57058187,-0.106416534
Artists workspaces unnamed,Artists workspaces,51.57495228,-0.088137877
Artists workspaces unnamed,Artists workspaces,51.5804164,-0.078036318
Carvall Warehouse ,Artists workspaces,51.58210093,-0.068366781
Artists workspaces unnamed,Artists workspaces,51.58254221,-0.06840582
Artists workspaces unnamed,Artists workspaces,51.58343971,-0.063936386
Euro Art Studios,Artists workspaces,51.58375702,-0.063547609
Gaunson House ,Artists workspaces,51.58376601,-0.063547228
Artists workspaces unnamed,Artists workspaces,51.59419545,-0.113072676
Artists workspaces unnamed,Artists workspaces,51.57210608,0.066377156
Artists workspaces unnamed,Artists workspaces,51.57904253,-0.349360673
Whitefriars Avenue,Artists workspaces,51.59858267,-0.340392831
Lombard Rd,Artists workspaces,51.40966428,-0.189427848
Phipps Bridge,Artists workspaces,51.40526325,-0.182225598
Cannizaro Park,Artists workspaces,51.42373831,-0.232511218
Oaks Park,Artists workspaces,51.33383365,-0.174127333
Artists workspaces unnamed,Artists workspaces,51.3763539,-0.099010414
Hawks Road,Artists workspaces,51.40818644,-0.293224831
Artists workspaces unnamed,Artists workspaces,51.61281644,-0.176699509
Arts Depot ,Arts centres,51.61281644,-0.176699509
Battersea Arts Centre ,Arts centres,51.46516318,-0.160813767
Bernie Grant Arts Centre ,Arts centres,51.58747503,-0.073075943
Jacksons Lane ,Arts centres,51.57668107,-0.145404162
Chats Palace ,Arts centres,51.55026393,-0.042683326
Dugdale  ,Arts centres,51.65031766,-0.081118167
Harrow Arts Centre ,Arts centres,51.60848854,-0.363803161
ICA,Arts centres,51.50671003,-0.130148252
Irish Cultural Centre ,Arts centres,51.49231323,-0.225584711
Riverside Studios ,Arts centres,51.48890897,-0.228255397
JW3,Arts centres,51.5509403,-0.184819282
OSO Arts Centre,Arts centres,51.47230095,-0.246625659
The Landmark Arts Centre ,Arts centres,51.4280867,-0.324626903
Redbridge Drama Centre ,Arts centres,51.5984529,0.022659873
Rich Mix ,Arts centres,51.52435934,-0.073275203
Poplar Union ,Arts centres,51.51559973,-0.02298261
Southbank Centre ,Arts centres,51.50576807,-0.116800006
Streatham Space Project ,Arts centres,51.43878494,-0.1276554
The Tabernacle,Arts centres,51.51696816,-0.201881407
The Albany ,Arts centres,51.4778771,-0.027409247
The Arts Centre Houndslow ,Arts centres,51.46813353,-0.363025347
Watermans Arts Centre,Arts centres,51.48576836,-0.298042371
The Barbican ,Arts centres,51.51996071,-0.094102589
The Library at Willesdon Green,Arts centres,51.5466504,-0.228921501
Fairfield Halls ,Arts centres,51.37252439,-0.095778074
Stratford Circus Arts Centre ,Arts centres,51.5427166,0.001743614
Cineworld Cinema London Wembley,Cinemas,51.5568562,-0.283710525
The Lexi Cinema,Cinemas,51.53758916,-0.222597116
Tricycle Cinema,Cinemas,51.542975,-0.200134773
Cineworld Wembley,Cinemas,51.55668714,-0.283479984
Showcase Newham,Cinemas,51.5263416,0.081209375
Stratford East Picturehouse,Cinemas,51.54305291,0.001512921
Vue Westfield Stratford,Cinemas,51.54329458,-0.006869893
David Lean Cinema,Cinemas,51.37216277,-0.098982766
Vue Croydon,Cinemas,51.37299684,-0.101060374
Vue Croydon Purley Way,Cinemas,51.37812235,-0.124500703
Odeon Beckenham,Cinemas,51.40710681,-0.031376363
Odeon Kingston,Cinemas,51.41170695,-0.299341879
Odeon Wimbledon,Cinemas,51.41961437,-0.204898842
Odeon Streatham,Cinemas,51.43209051,-0.128031046
West Norwood Library And Picturehouse,Cinemas,51.43320347,-0.103297699
Ritzy Picturehouse,Cinemas,51.46127292,-0.114615424
Clapham Picturehouse,Cinemas,51.46254063,-0.138230597
Whirled Cinema,Cinemas,51.4650893,-0.101457691
BFI IMAX,Cinemas,51.50481779,-0.113625853
BFI Southbank,Cinemas,51.5069462,-0.115937365
Cineworld Felham,Cinemas,51.44390485,-0.404573783
Watermans Art Centre,Cinemas,51.48576836,-0.298042369
Cineworld Wandsworth,Cinemas,51.45396118,-0.193404797
Odeon Putney,Cinemas,51.46517461,-0.213924278
Curzon Richmond,Cinemas,51.45928636,-0.306829126
Odeon Richmond,Cinemas,51.45941188,-0.305557719
Olympic Cinema,Cinemas,51.47521925,-0.240756393
East Dulwich Picturehouse & Cafe,Cinemas,51.45644173,-0.076309899
Peckhamplex,Cinemas,51.4707435,-0.068195156
Odeon Surrey Quays,Cinemas,51.49637199,-0.043293711
Kino Bermondsey,Cinemas,51.49769493,-0.080820887
Curzon Mondrian London,Cinemas,51.50844385,-0.106938994
Sands Film Cinema,Cinemas,51.49861795,-0.097798646
Cineworld Bexleyheath,Cinemas,51.45608879,0.149984183
Curzon Goldsmiths,Cinemas,51.47414396,-0.035375198
Deptford Cinema,Cinemas,51.47439559,-0.024665131
Vue Cinema Fulham Broadway,Cinemas,51.48041645,-0.194491515
Riverside Studios,Cinemas,51.4858941,-0.217837706
"Vue Shepherd's Bush



",Cinemas,51.50759869,-0.221401856
Greenwich Picturehouse,Cinemas,51.47943879,-0.009671085
Odeon Greenwich,Cinemas,51.49057603,0.012774431
Cineworld The O2 Greenwich,Cinemas,51.50302657,0.004537684
Cineworld Fulham Road,Cinemas,51.48715248,-0.179403852
Curzon Chelsea,Cinemas,51.48812685,-0.167481493
Cine Lumiere,Cinemas,51.49455508,-0.177192834
Gate Picturehouse,Cinemas,51.50874073,-0.197248228
Electric Cinema (Portobello),Cinemas,51.51552416,-0.20506589
Odeon Tottenham Court Road,Cinemas,51.51822109,-0.13242965
Odeon Covent Garden,Cinemas,51.51432336,-0.128236541
Covent Garden Hotel,Cinemas,51.51454739,-0.127059926
Curzon Bloomsbury,Cinemas,51.52415207,-0.123148238
Birkbeck Cinema,Cinemas,51.52468923,-0.130319663
Everyman Kings Cross,Cinemas,51.53744767,-0.127359687
Odeon Camden Town,Cinemas,51.53916175,-0.144117937
Odeon Swiss Cottage,Cinemas,51.54245283,-0.174485313
Vue Finchley Road,Cinemas,51.54794663,-0.181390374
JW3,Cinemas,51.55096978,-0.184399808
Everyman Belsize Park,Cinemas,51.55072038,-0.166047949
Everyman Hampstead,Cinemas,51.55644354,-0.179003013
Curzon Victoria,Cinemas,51.49771545,-0.13681259
Imperial College Union Cinema,Cinemas,51.50027797,-0.178150759
Curzon Mayfair,Cinemas,51.50659042,-0.147546226
ICA,Cinemas,51.50641041,-0.131097181
Empire Cinema Haymarket,Cinemas,51.50875843,-0.132283615
Vue Piccadilly,Cinemas,51.50894604,-0.134466399
Odeon Luxe Haymarket,Cinemas,51.50951524,-0.131243872
Odeon Panton Street,Cinemas,51.50951524,-0.131243872
Picturehouse Central,Cinemas,51.51087392,-0.133551736
Empire Leicester Square,Cinemas,51.51086931,-0.130439035
Ham Yard Hotel,Cinemas,51.51116353,-0.134578107
Prince Charles Cinema,Cinemas,51.51149518,-0.130211635
Empire Cinemas Walthamstow,Cinemas,51.51152033,-0.129533253
Vue Leicester Square,Cinemas,51.51152033,-0.129533253
Curzon Soho,Cinemas,51.5127941,-0.130461077
Odeon The Lounge,Cinemas,51.5145804,-0.188715908
Odeon Whiteleys,Cinemas,51.5145804,-0.188715908
Soho Hotel,Cinemas,51.51393266,-0.133628424
Regent Street Cinema,Cinemas,51.51679361,-0.143341349
Charlotte Street Hotel,Cinemas,51.51838839,-0.135031716
Everyman Baker Street,Cinemas,51.52055382,-0.156536225
Everyman Maida Vale,Cinemas,51.52798819,-0.181724821
Everyman Canary Wharf,Cinemas,51.50613284,-0.017815954
Cineworld West India Quay,Cinemas,51.50790861,-0.022854652
Genesis Cinema,Cinemas,51.5214676,-0.051212502
Close-Up Film Centre,Cinemas,51.52367213,-0.07203506
Electric Cinema (Shoreditch),Cinemas,51.52436077,-0.073909444
Rich Mix,Cinemas,51.52435934,-0.073275201
Curzon Aldgate,Cinemas,51.51381826,-0.068805541
Barbican Centre,Cinemas,51.51996071,-0.094102587
Vue Action,Cinemas,51.52571185,-0.281286457
"Vue Islington 




",Cinemas,51.53423596,-0.105992938
Everyman Screen on the Green,Cinemas,51.53688804,-0.103719819
Odeon Holloway,Cinemas,51.55871979,-0.12145086
Vue Dagenham,Cinemas,51.53209602,0.135786712
Odeon Uxbridge,Cinemas,51.54514957,-0.475537829
Cineworld South Ruislip,Cinemas,51.55907317,-0.400059705
Hackney Picturehouse,Cinemas,51.54485701,-0.054986963
Rio Cinema,Cinemas,51.54963226,-0.075698054
The Castle Cinema,Cinemas,51.55129042,-0.043302828
Balik Arts,Cinemas,51.55915333,-0.073926029
Cineworld Illford,Cinemas,51.5579113,0.074679439
Odeon South Woodford,Cinemas,51.59455889,0.023194377
Odeon South Woodford,Cinemas,51.59455889,0.023194377
Vue Harrow,Cinemas,51.58146751,-0.338952777
Vue Romford,Cinemas,51.5749063,0.180083579
Crouch End Picturehouse,Cinemas,51.58140392,-0.120645866
Arthouse Crouch End,Cinemas,51.58183363,-0.119964197
Everyman Muswell Hill,Cinemas,51.58960665,-0.146191625
Cineworld Wood Green,Cinemas,51.59455236,-0.109549528
Vue Wood Green,Cinemas,51.59685806,-0.108659726
Empire Walthamstow,Cinemas,51.58501143,-0.020158837
Phoenix (East Finchley),Cinemas,51.58850761,-0.163659643
Vue North Finchley,Cinemas,51.60383798,-0.173285971
Vue North Finchley,Cinemas,51.60383798,-0.173285971
Odeon Lee Valley,Cinemas,51.63319203,-0.037238206
Cineworld Enfield,Cinemas,51.65008708,-0.060879811
Domobaal,Commercial galleries,51.52160663,-0.114704893
Catto Gallery,Commercial galleries,51.55850338,-0.178459104
Freespace Gallery,Commercial galleries,51.54640649,-0.139928913
Orange Dot Gallery,Commercial galleries,51.52564779,-0.125018476
Lawrence Alkin Gallery,Commercial galleries,51.51542854,-0.127614696
University of the Arts London Gallery,Commercial galleries,51.51776637,-0.116362566
Gallery K,Commercial galleries,51.55916189,-0.178591492
Austin Desmond Fine Art,Commercial galleries,51.51879361,-0.124348782
Brunei Gallery,Commercial galleries,51.52235179,-0.129233404
The October Gallery,Commercial galleries,51.52069374,-0.121704875
Rebecca Hossack Gallery 2,Commercial galleries,51.51894489,-0.13496573
Rebecca Hossack Gallery 1,Commercial galleries,51.52204781,-0.13952379
The Framers Gallery,Commercial galleries,51.5189051,-0.13416017
Beside the Wave,Commercial galleries,51.54017463,-0.154171219
Woolff Gallery,Commercial galleries,51.52047104,-0.137065535
Lahd Gallery,Commercial galleries,51.55821625,-0.178499427
The Cob Gallery,Commercial galleries,51.5411605,-0.138023015
Edge of Arabia,Commercial galleries,51.51812949,-0.121623037
Hanmi Gallery,Commercial galleries,51.52220044,-0.138940963
Gagosian Gallery 1,Commercial galleries,51.53010375,-0.118001393
L. Ron Hubbards Fitzroy House,Commercial galleries,51.52250112,-0.139188172
Novelty Automation,Commercial galleries,51.51966354,-0.116904072
Charlie Dutton Gallery,Commercial galleries,51.51966354,-0.116904072
Simon Oldfield,Commercial galleries,51.51856295,-0.123421355
The Gallery at 94,Commercial galleries,51.5226043,-0.141158848
Tristan Hoare,Commercial galleries,51.52345761,-0.139394224
Hardy Tree Gallery,Commercial galleries,51.5334252,-0.128880189
University College London Museums,Commercial galleries,51.52454102,-0.13400177
Contemporary Applied Arts,Commercial galleries,51.51791356,-0.134013332
Architectural Association,Commercial galleries,51.51822007,-0.130671204
The Crypt Gallery,Commercial galleries,51.52707881,-0.130164067
Pollock's Toy Museum,Commercial galleries,51.52033482,-0.135283698
Coningsby Gallery,Commercial galleries,51.52036607,-0.136118463
Eagle Gallery,Commercial galleries,51.52416186,-0.109755626
Work,Commercial galleries,51.54283831,-0.091358091
Dreamspace Gallery,Commercial galleries,51.52258599,-0.092407237
Bloomberg Space,Commercial galleries,51.52000017,-0.087138724
Arcade,Commercial galleries,51.52701264,-0.096417408
Sway Gallery,Commercial galleries,51.52424074,-0.095177975
Islington Arts Factory,Commercial galleries,51.55421887,-0.122848051
James Freeman Gallery,Commercial galleries,51.53460763,-0.104506756
Curious Duke Gallery,Commercial galleries,51.52368336,-0.093529026
Modern Art 1,Commercial galleries,51.52503946,-0.094524733
All Visual Arts,Commercial galleries,51.53146408,-0.120396334
Cubitt Gallery,Commercial galleries,51.5323504,-0.107844695
Medici Gallery,Commercial galleries,51.53269655,-0.108118705
Guardian News & Media,Commercial galleries,51.53499869,-0.121548395
Beers London,Commercial galleries,51.52700709,-0.088892094
Pangolin London,Commercial galleries,51.53499869,-0.121548395
William Benington,Commercial galleries,51.53020001,-0.106102854
Usurp,Commercial galleries,51.57904584,-0.349346696
CubeFuture,Commercial galleries,51.51934937,-0.072665139
Eleven Spitalfields,Commercial galleries,51.51985616,-0.07285995
Leyden Gallery,Commercial galleries,51.51689895,-0.076227906
Brick Lane Gallery,Commercial galleries,51.5244813,-0.071395967
Espacio Gallery,Commercial galleries,51.52560906,-0.070526555
Whitechapel Gallery,Commercial galleries,51.51617304,-0.070363429
The Mews Project Space,Commercial galleries,51.51642914,-0.070078743
Stolenspace Gallery,Commercial galleries,51.51647502,-0.070134457
Maureen Paley,Commercial galleries,51.5252549,-0.055982227
Four Corners Gallery,Commercial galleries,51.52889595,-0.048991303
Arebyte,Commercial galleries,51.5428834,-0.023501626
Proof London,Commercial galleries,51.52345087,-0.070387758
Vilma Gold,Commercial galleries,51.53159921,-0.059704513
Modern Art 2,Commercial galleries,51.53461966,-0.054759988
Chisenhale Gallery,Commercial galleries,51.53307609,-0.039795322
Forman's Smokehouse Gallery,Commercial galleries,51.5396254,-0.021203967
The Alexander Miles Gallery,Commercial galleries,51.50742805,-0.071208676
Calvert 22,Commercial galleries,51.52608388,-0.07623214
Breese Little,Commercial galleries,51.52573238,-0.055552882
Public Exhibitions,Commercial galleries,51.53065451,-0.072292396
Union Gallery,Commercial galleries,51.52981452,-0.061320976
Cell Project Space,Commercial galleries,51.5332797,-0.056604193
Unit 9,Commercial galleries,51.52407937,-0.074843942
Raven Row,Commercial galleries,51.51815918,-0.076852235
Pitzhanger Manor House & Gallery,Commercial galleries,51.51090757,-0.307092299
Studio 106,Commercial galleries,51.48049962,-0.204007863
Louise T Blouin Institute,Commercial galleries,51.51008833,-0.217759694
Bhavan Art Gallery,Commercial galleries,51.4897635,-0.207043431
Hidde van Seggelen Gallery,Commercial galleries,51.47758981,-0.188468243
The Cynthia Corbett Gallery,Commercial galleries,51.41551642,-0.222777327
Bank of England Museum,Commercial galleries,51.51423596,-0.08769741
Carter Lane Gallery,Commercial galleries,51.51294004,-0.100362438
EXHIBIT at Golden Lane Estate,Commercial galleries,51.52244162,-0.097357719
Crypt Museum,Commercial galleries,51.50933062,-0.079184154
Pumphouse Gallery,Commercial galleries,51.47899807,-0.154785155
Sprout Community Arts,Commercial galleries,51.42403173,-0.147203436
The Wandsworth Museum,Commercial galleries,51.45713641,-0.200476775
Maestro Arts,Commercial galleries,51.46186657,-0.198131335
Plus One Gallery,Commercial galleries,51.46314652,-0.184908109
Foss Fine Art,Commercial galleries,51.45707595,-0.165226698
Northcote Gallery Battersea,Commercial galleries,51.4568778,-0.165781632
Kristin Hjellegjerde,Commercial galleries,51.45981637,-0.188797413
Brent Artists Resource,Commercial galleries,51.54766993,-0.223790591
Crane Kalman,Commercial galleries,51.49797105,-0.167302686
Hollywood Road Gallery,Commercial galleries,51.48603842,-0.184691149
The Rowley Gallery,Commercial galleries,51.50677826,-0.194775137
Japanese Gallery,Commercial galleries,51.50532413,-0.193780733
Northcote Gallery Chelsea,Commercial galleries,51.48604711,-0.171993135
Museum of Brands,Commercial galleries,51.51637172,-0.211100471
James Harvey British Art,Commercial galleries,51.48235595,-0.18091987
Doyle Devere,Commercial galleries,51.51387222,-0.198789432
The Orangery,Commercial galleries,51.50657126,-0.187765621
Tryon St,Commercial galleries,51.49033075,-0.16292757
Lacey Contemporary,Commercial galleries,51.51049446,-0.21017793
The Dot Project,Commercial galleries,51.48979585,-0.175322819
Offer Waterman & Co,Commercial galleries,51.48229148,-0.180821616
Cadogan Contemporary,Commercial galleries,51.49251817,-0.176899574
The Muse,Commercial galleries,51.51793441,-0.206844851
Medici Gallery (south Kensington),Commercial galleries,51.49429238,-0.17360176
GGGallery,Commercial galleries,51.51565025,-0.205666272
Richard Young Gallery,Commercial galleries,51.50331161,-0.192125073
Hackelbury,Commercial galleries,51.4990339,-0.185341716
The Foundry Gallery,Commercial galleries,51.48438957,-0.172326746
The Little Black Gallery,Commercial galleries,51.48591807,-0.179827516
Saatchi Gallery,Commercial galleries,51.49060611,-0.158695809
Graffik Gallery,Commercial galleries,51.51935509,-0.207423239
Flying Colours Gallery,Commercial galleries,51.48881703,-0.166186221
Michael Hoppen Gallery,Commercial galleries,51.48896733,-0.16602174
Richard Green 2,Commercial galleries,51.51174868,-0.143624401
Skarstedt Gallery,Commercial galleries,51.50711912,-0.140607813
Scream,Commercial galleries,51.51671736,-0.138530388
Ben Brown Fine Arts,Commercial galleries,51.51240247,-0.14601326
Marlborough Fine Art,Commercial galleries,51.50856182,-0.140851674
Messum's,Commercial galleries,51.51047708,-0.141407765
Serpentine Gallery,Commercial galleries,51.50479035,-0.174983022
Frith Street Gallery,Commercial galleries,51.51119847,-0.136997256
Sprovieri,Commercial galleries,51.51112736,-0.139882479
Berloni,Commercial galleries,51.51664592,-0.140262903
Chelsea Space,Commercial galleries,51.49043866,-0.128235835
Olivier Malingue,Commercial galleries,51.51149908,-0.144046728
Richard Green 1,Commercial galleries,51.51131637,-0.143866806
Photographers' Gallery,Commercial galleries,51.51492661,-0.139021402
The Aram Gallery,Commercial galleries,51.51334636,-0.118879777
White Cube,Commercial galleries,51.50761293,-0.137158001
Willow Gallery,Commercial galleries,51.50734985,-0.137982205
Blain Southern,Commercial galleries,51.51385681,-0.14301404
Albemarle Gallery,Commercial galleries,51.50802785,-0.141204865
Queen's Gallery,Commercial galleries,51.49971659,-0.142782303
Rosenfeld Porcini,Commercial galleries,51.51852056,-0.135992049
Lisson Gallery 1,Commercial galleries,51.52108621,-0.168132965
London Print Studio,Commercial galleries,51.52568329,-0.205487907
Eykyn Maclean,Commercial galleries,51.51238715,-0.142771184
Laurent Delaye Gallery,Commercial galleries,51.51096719,-0.139989887
Pyms Gallery,Commercial galleries,51.51031931,-0.148490157
Imitate Modern,Commercial galleries,51.50643503,-0.146817616
Debut Contemporary,Commercial galleries,51.51536058,-0.1932394
Mark Gallery,Commercial galleries,51.51487653,-0.165528512
Halcyon Gallery I,Commercial galleries,51.51139908,-0.143978736
PM/AM,Commercial galleries,51.51823211,-0.166762924
Graham Hunter Gallery,Commercial galleries,51.51994837,-0.156921045
Sims Reed Gallery,Commercial galleries,51.50689268,-0.13878751
Getty Images Gallery,Commercial galleries,51.51631333,-0.139137811
Sadie Coles HQ,Commercial galleries,51.51231051,-0.139070425
Waddington Custot Galleries,Commercial galleries,51.51011136,-0.141595592
Heartbreak,Commercial galleries,51.51763338,-0.150960825
Bernard Jacobson Gallery,Commercial galleries,51.51054821,-0.14192368
St Petersburg Gallery,Commercial galleries,51.51054821,-0.14192368
Michael Werner Gallery,Commercial galleries,51.511356,-0.156071866
Workplace Gallery,Commercial galleries,51.51268978,-0.140870885
Paradise Row,Commercial galleries,51.51762902,-0.135913155
Edel Assanti,Commercial galleries,51.51762902,-0.135913155
Rook & Raven,Commercial galleries,51.51682808,-0.133048779
Partners & Mucciaccia,Commercial galleries,51.50785747,-0.141802637
James Hyman Fine Art,Commercial galleries,51.51060475,-0.139817308
Hauser & Wirth 2,Commercial galleries,51.51199619,-0.140798254
Great Western Studios,Commercial galleries,51.52119908,-0.196309171
Aktis Gallery,Commercial galleries,51.5062544,-0.139951351
Chris Beetles Photographs,Commercial galleries,51.50919945,-0.137408568
Courtauld Institute of Art,Commercial galleries,51.51092609,-0.117682481
"Pertwee,  Anderson & Gold",Commercial galleries,51.51396457,-0.132243519
David Gill,Commercial galleries,51.50677281,-0.13691849
Whitfield Fine Art,Commercial galleries,51.51425616,-0.145519992
Thomas Dane Gallery,Commercial galleries,51.50732231,-0.137544531
Victoria Miro Gallery II,Commercial galleries,51.51289557,-0.143644049
Alison Jacques Gallery,Commercial galleries,51.51747733,-0.136553551
Fold,Commercial galleries,51.52053573,-0.139441298
Annely Juda Fine Art,Commercial galleries,51.51425616,-0.145519992
Gagosian Gallery 2,Commercial galleries,51.51105386,-0.147739782
Pace London 1,Commercial galleries,51.50966523,-0.140114997
Asia House,Commercial galleries,51.51970782,-0.146220948
Lisson Gallery 2,Commercial galleries,51.52090312,-0.169653853
Rossi & Rossi,Commercial galleries,51.50680169,-0.138171002
Fiumano Fine Art,Commercial galleries,51.51443527,-0.165488599
Ambika P3,Commercial galleries,51.52202475,-0.154574012
The Sherlock Holmes Museum,Commercial galleries,51.52375095,-0.158554959
John Adams Fine Art,Commercial galleries,51.49096854,-0.153149603
Eleven,Commercial galleries,51.4943403,-0.147985498
The Osborne Studio Gallery,Commercial galleries,51.49920604,-0.156591351
La Galleria,Commercial galleries,51.50769985,-0.131880201
GRAD,Commercial galleries,51.5174344,-0.140648764
Stephen Wiltshire Gallery,Commercial galleries,51.50769851,-0.132072493
Panter and Hall,Commercial galleries,51.50712873,-0.133286966
Alan Cristea Gallery,Commercial galleries,51.50608666,-0.136182761
Institute of Contemporary Arts - ICA,Commercial galleries,51.50641041,-0.131097181
Malcolm Fairley,Commercial galleries,51.50637032,-0.138188595
Paisnel Gallery,Commercial galleries,51.50675652,-0.138158434
Sladmore,Commercial galleries,51.50775849,-0.139529801
Chris Beetles,Commercial galleries,51.50712682,-0.138258614
Two Temple Place,Commercial galleries,51.51160271,-0.112221343
Atlas Gallery,Commercial galleries,51.51950107,-0.155353549
Fashion Space Gallery,Commercial galleries,51.51564146,-0.14327292
Hay Hill Gallery,Commercial galleries,51.51795248,-0.155881858
A&D Gallery,Commercial galleries,51.51997338,-0.155651571
Hellenic Centre,Commercial galleries,51.52095673,-0.153564938
RIBA Architecture Gallery,Commercial galleries,51.52132272,-0.14484359
Pi Artworks,Commercial galleries,51.51641393,-0.138110367
Pilar Corrias,Commercial galleries,51.51640632,-0.138197157
Art First,Commercial galleries,51.51681629,-0.13796423
Nancy Victor,Commercial galleries,51.51880052,-0.136067097
Gallery Libby Sellers,Commercial galleries,51.51821413,-0.137647743
Ronchini Gallery,Commercial galleries,51.51425616,-0.145519992
Hauser & Wirth 1,Commercial galleries,51.5087478,-0.137270207
Anthony Reynolds Gallery,Commercial galleries,51.51460078,-0.137189863
Flowers Gallery Central,Commercial galleries,51.51013841,-0.141032451
Erskine Hall & Coe,Commercial galleries,51.50907832,-0.141666472
David Zwimer,Commercial galleries,51.50947721,-0.143004874
Colnaghi,Commercial galleries,51.50906097,-0.140571946
Gazelli Art House,Commercial galleries,51.50832538,-0.142388839
Sprth Magers,Commercial galleries,51.50999256,-0.143747704
D-Contemporary,Commercial galleries,51.50954103,-0.143059922
Erarta Galleries,Commercial galleries,51.50790733,-0.142679652
Sladmore Contemporary,Commercial galleries,51.5110576,-0.145131136
Lefevre Fine Art,Commercial galleries,51.51063567,-0.145177105
Sophia Contemporary,Commercial galleries,51.51216425,-0.145734698
The Fine Art Society,Commercial galleries,51.5112703,-0.143796621
Gimpel Fils,Commercial galleries,51.51195324,-0.147746518
Gallery Elena Shchukina,Commercial galleries,51.51214754,-0.154368108
Sadie Coles Gallery,Commercial galleries,51.50856894,-0.151544186
Hamiltons Gallery,Commercial galleries,51.51063008,-0.149947516
Galeries Bartoux,Commercial galleries,51.51354722,-0.146182942
Salon Contemporary,Commercial galleries,51.51536058,-0.1932394
Thomas & Paul,Commercial galleries,51.52307135,-0.185928234
ContiniArtUK,Commercial galleries,51.51346497,-0.146099809
Max Wigram Gallery,Commercial galleries,51.51346497,-0.146099809
Timothy Taylor Gallery,Commercial galleries,51.51060175,-0.149862196
Bischoff/Weiss,Commercial galleries,51.50901071,-0.143643522
Space Station 65,Commercial galleries,51.48652548,-0.110765725
Amstel Art Gallery,Commercial galleries,51.48535773,-0.126542629
Newport Street,Commercial galleries,51.49343134,-0.116977363
Danielle Arnaud,Commercial galleries,51.49480273,-0.110452307
Caroline Wiseman,Commercial galleries,51.4765788,-0.126412499
Morley College Gallery,Commercial galleries,51.49787916,-0.109950429
Gasworks Gallery,Commercial galleries,51.48513475,-0.115432308
Photofusion Gallery,Commercial galleries,51.46187314,-0.113914084
Brixton Art Gallery,Commercial galleries,51.46382046,-0.113099589
Brocket Gallery,Commercial galleries,51.48701893,-0.111811231
Orso Major Gallery,Commercial galleries,51.50059923,-0.113007679
Man & Eve,Commercial galleries,51.50080871,-0.113171923
Clapham Art Gallery,Commercial galleries,51.46264962,-0.138298146
CGP London,Commercial galleries,51.49414758,-0.053905699
Purdy Hicks,Commercial galleries,51.50747223,-0.102016601
Vibe Gallery,Commercial galleries,51.49476219,-0.062235321
Unit 24,Commercial galleries,51.5059395,-0.097887005
Vitrine,Commercial galleries,51.49739118,-0.080751241
Horatio Jr,Commercial galleries,51.50114981,-0.049522671
The Sunday Painter,Commercial galleries,51.46973316,-0.069199646
Son Gallery,Commercial galleries,51.4700081,-0.065739309
ASC Gallery,Commercial galleries,51.48835522,-0.086620188
The Sassoon Gallery,Commercial galleries,51.46949,-0.070133997
Borough Road Gallery,Commercial galleries,51.49870595,-0.101742554
Poppy Sebire,Commercial galleries,51.50316867,-0.097267571
White Cube,Commercial galleries,51.49945047,-0.082654309
Flat Time House,Commercial galleries,51.46610076,-0.074161665
Arch Collective,Commercial galleries,51.49212361,-0.059293261
South London Gallery,Commercial galleries,51.47428603,-0.079749723
Menier Gallery,Commercial galleries,51.50462957,-0.09419508
Jerwood Space Gallery,Commercial galleries,51.50361171,-0.099079087
Hannah Barry Gallery,Commercial galleries,51.4700081,-0.065739309
The Wapping Project Bankside,Commercial galleries,51.50744783,-0.10217613
Bethlem Gallery,Commercial galleries,51.38092833,-0.029725744
Flowers Gallery East,Commercial galleries,51.52964763,-0.077146421
Parasol unit,Commercial galleries,51.53037712,-0.095008949
Five Years,Commercial galleries,51.53550144,-0.060216231
Rocket Gallery,Commercial galleries,51.5240737,-0.076689415
Hoxton Art Gallery,Commercial galleries,51.5263039,-0.081078945
Galerie8,Commercial galleries,51.5435943,-0.057088404
The Proud Archivist,Commercial galleries,51.53726349,-0.078707127
Charlie Smith,Commercial galleries,51.52658861,-0.081441801
Unit G Gallery,Commercial galleries,51.5440454,-0.047626972
BSMT Space,Commercial galleries,51.55077849,-0.075404508
ICN,Commercial galleries,51.52458741,-0.081690309
Blackhall Studios,Commercial galleries,51.52485061,-0.082942094
Galleries Goldstein,Commercial galleries,51.52722306,-0.082294545
CNB Gallery,Commercial galleries,51.52585432,-0.081631266
Red Gallery,Commercial galleries,51.52616876,-0.083261528
Signal Gallery,Commercial galleries,51.52355483,-0.083991227
The Residence,Commercial galleries,51.53832806,-0.044147102
Mercer Chance,Commercial galleries,51.53387568,-0.08052964
Daniel Blau,Commercial galleries,51.52717303,-0.081660433
Waterside Contemporary,Commercial galleries,51.53202047,-0.085308127
Standpoint,Commercial galleries,51.5270715,-0.081825162
The Invisible Line,Commercial galleries,51.5478583,-0.068993965
Fishbar,Commercial galleries,51.54819852,-0.065085244
Rowing,Commercial galleries,51.55802901,-0.072271178
Andor Gallery,Commercial galleries,51.53132194,-0.070140669
Victoria Miro Gallery I,Commercial galleries,51.53032897,-0.094995244
Royal Observatory,Commercial galleries,51.47734717,-0.000849719
Paul McPherson Gallery,Commercial galleries,51.48470111,0.001864669
Greenwich Printmakers Gallery,Commercial galleries,51.48137273,-0.009169154
Old Royal Naval College,Commercial galleries,51.48287141,-0.008778187
Narenj Art Gallery,Commercial galleries,51.59835398,-0.138659381
Highgate Contemporary Art,Commercial galleries,51.57061838,-0.14643011
Blackheath Gallery,Commercial galleries,51.46639637,0.008952852
Bearspace,Commercial galleries,51.4794964,-0.025841547
The Stone Space,Commercial galleries,51.56820256,0.010611115
Cresswood Tenants Hall,Community centres,51.55120028,-0.148503241
Bayham Place Tenants Association Hall,Community centres,51.53610467,-0.137335425
Sycamore Community Hall,Community centres,51.53970996,-0.191899768
Godwin & Crowndale Community Hall,Community centres,51.53482093,-0.135210575
Whittington Court TRA Hall,Community centres,51.56571411,-0.141666009
Bacton Tower TA Room,Community centres,51.5520907,-0.154222457
St Pancras Community Centre,Community centres,51.53650816,-0.137261267
Queens Crescent Community Association,Community centres,51.55084417,-0.151013071
Coopers Lane Community Centre,Community centres,51.53299263,-0.129950483
1A Arts Community Centre ,Community centres,51.52244749,-0.112190739
Somali Community Centre,Community centres,51.55322562,-0.154912179
South Hampstead and Kilburn Partnership (SHAK),Community centres,51.53997154,-0.181477716
Peckwater TA Hall,Community centres,51.54994314,-0.136120957
Blashford TA Room,Community centres,51.54339843,-0.161900558
Camden Society,Community centres,51.53890121,-0.140725343
Bedefield Community Room,Community centres,51.52833968,-0.12127475
Ethiopian Community in Britain,Community centres,51.54912269,-0.184747406
Hilgrove Estate TA Room,Community centres,51.54227453,-0.177477672
Cockpit Arts / Action Space,Community centres,51.52143692,-0.116456103
Grafton Way TRA Room,Community centres,51.52418475,-0.136481428
Camden People's Theatre,Community centres,51.52640081,-0.138423622
Fellows Road Tenant Association,Community centres,51.54348908,-0.169425058
Gospel Oak 7 and 8 TRA Hall ,Community centres,51.55143422,-0.151364175
Kingsland TA Room,Community centres,51.5374977,-0.164099505
St Albans Villas and Oak Court TRA Hall,Community centres,51.56117709,-0.14990144
Winchester Project ,Community centres,51.54330439,-0.172576401
Doreen Bazell Hall,Community centres,51.53383988,-0.130636684
Maiden Lane Community Centre,Community centres,51.54133776,-0.128815102
Swiss Cottage Community Centre,Community centres,51.5430768,-0.172398041
Kentish Town Community Centre,Community centres,51.5485436,-0.132370399
Highgate Newtown Community Centre,Community centres,51.56273332,-0.143100456
Kingsgate Resource Centre,Community centres,51.5452686,-0.197823205
Bengali Workers Community Centre,Community centres,51.52831358,-0.138821331
Holly Lodge Community Centre,Community centres,51.56464951,-0.148274381
Sidings Community Centre,Community centres,51.54903594,-0.198957964
Abbey Community Centre,Community centres,51.53948042,-0.188678692
Camden Chinese Community Centre,Community centres,51.52536339,-0.126918671
Ingestre Road Community Centre,Community centres,51.55542878,-0.142936343
Hampstead Community Centre,Community centres,51.55552162,-0.176385517
Castlehaven Community Centre,Community centres,51.54277566,-0.145182256
Covent Garden Dragon Hall Trust,Community centres,51.5166264,-0.122665011
Ampthill Square Tenants Hall,Community centres,51.53102182,-0.137211374
St Pancras Community Centre,Community centres,51.55109143,-0.199295075
Kingsgate Community Centre,Community centres,51.54428195,-0.196232523
Great Ormond St TRA Hall,Community centres,51.52234906,-0.118378911
Grays Inn Community Centre,Community centres,51.52214402,-0.11233303
Casa De Mozambique in UK,Community centres,51.54141364,-0.126807447
Community Learning Centre (SHELL),Community centres,51.5392509,-0.182559147
Marchmont Community Centre,Community centres,51.52533463,-0.125117842
Jim Faulkner Community Room,Community centres,51.55735182,-0.14228095
Chadswell Healthy Living Centre,Community centres,51.52762328,-0.122025093
St Eugene De Mazenod Community Centre,Community centres,51.54097006,-0.193724514
O2 Centre Community Venue,Community centres,51.54794686,-0.181404788
Barnfield & Woodfield Tenants Association Room,Community centres,51.55091319,-0.159982072
Athlone Hall,Community centres,51.54807887,-0.148442502
Tresham Tenants Association Room,Community centres,51.51966614,-0.118186837
Bray TRA Hall,Community centres,51.54359483,-0.16640666
Una House TRA,Community centres,51.54670697,-0.143003133
Dudley Court TA Room,Community centres,51.51511246,-0.124716264
Derby Lodge Tenants Association Hall,Community centres,51.53002354,-0.117485669
Calthorpe Project,Community centres,51.52683808,-0.11791986
Falcon Tenants Association Room,Community centres,51.52010959,-0.121166756
"Kennistoun, Willingham, Rosemary & Margaret TA Hall",Community centres,51.55135957,-0.136409228
Torriano Project / Torriano Meeting House Ltd,Community centres,51.55127482,-0.133340324
Kenbrook TRA Hall,Community centres,51.55041951,-0.135538944
Working Men's College,Community centres,51.55018854,-0.13628401
The Kosmos Centre (Camden Cypriot Women's Organisation),Community centres,51.55202959,-0.140665915
Queens Crescent Community Association,Community centres,51.54842303,-0.137798522
Lissenden Gardens TA Room,Community centres,51.55762234,-0.148588636
"Brunswick TA Hall, Unit 10",Community centres,51.524618,-0.124167013
Medway Court Tenants Association Room,Community centres,51.5269177,-0.124577039
Somerton House Tenants Association Room,Community centres,51.52773514,-0.12902707
Sidmouth Street Tenants Association Room ,Community centres,51.52741399,-0.119626112
Kings Cross Brunswick NA ,Community centres,51.52876091,-0.121185318
Winston House TRA Room,Community centres,51.52582318,-0.130374106
Gordon Mansions Tenants Association Room,Community centres,51.52218531,-0.134026036
Holborn Community Association,Community centres,51.51977608,-0.136906522
Mortimer Crescent Tenants Hall,Community centres,51.53659111,-0.188505072
Sidney Boyd Court Tenants Hall,Community centres,51.54219341,-0.192580028
Queens Crescent Community Association,Community centres,51.55024237,-0.151628857
Kiln Place TRA Hall,Community centres,51.55399343,-0.151130579
Barrington Court Tenants Association Room,Community centres,51.55327717,-0.152472289
Talacre Action Group,Community centres,51.54753806,-0.147224083
Denyer House TRA Room,Community centres,51.55635824,-0.144845972
Arkwright Mansions Tenants Room,Community centres,51.55073898,-0.1828512
Beaumont Walk Tenants Association Room,Community centres,51.54405569,-0.157936874
Primrose Hill Court TRA Room,Community centres,51.5423679,-0.159836574
Constable House Tenants Hall,Community centres,51.54429436,-0.156528297
Taplow TA Room,Community centres,51.54270632,-0.171129376
Burgh House Trust,Community centres,51.5581809,-0.175067339
St Christophers Fellowship,Community centres,51.55239253,-0.209687052
Templar House Tenants Hall,Community centres,51.54839458,-0.204637205
Agar Grove Tenant Management Co-operative,Community centres,51.54188431,-0.133205592
Camden Square TA Hall,Community centres,51.54572062,-0.126774722
Primrose Hill Community Centre,Community centres,51.54012177,-0.155384698
Three Fields TA Hall,Community centres,51.53577856,-0.141155452
Regents Park TA Room,Community centres,51.52969999,-0.144027131
West Euston Partnership ,Community centres,51.52950584,-0.141987763
Samuel Lithgow Youth Centre (London Youth),Community centres,51.52688412,-0.141114214
Churchway Tenants Association Room,Community centres,51.52876923,-0.130714719
Training Link ,Community centres,51.53113484,-0.130747541
Camden People First,Community centres,51.53254753,-0.137019301
Lauderdale House Society,Community centres,51.56930181,-0.143352346
Bourne Estate Tenants Association Hall,Community centres,51.52243873,-0.112205516
Langdon House Tenants Association Hall,Community centres,51.52097568,-0.109584906
Gamages Tenants Hall,Community centres,51.51902108,-0.108829859
Hillview Community Centre,Community centres,51.52807747,-0.122871413
Covent Garden Community Centre,Community centres,51.51373492,-0.125738498
Basil Jellicoe Hall,Community centres,51.52960264,-0.131660953
NEQ Community Room,Community centres,51.52619816,-0.139253623
Sparrow Farm Community Centre,Community centres,51.45210337,-0.397022824
Mission Hall Community Centre,Community centres,51.48767335,-0.298685873
Oriel Community Centre,Community centres,51.43460896,-0.388538231
Rose Community Hall & MUGA,Community centres,51.48062474,-0.319136388
Moulton Avenue Community Centre,Community centres,51.47592042,-0.382143981
Dukes Meadow Community Centre,Community centres,51.4806892,-0.257017049
Alf Chandler Centre,Community centres,51.46563509,-0.372843359
Clayponds Community Centre,Community centres,51.49526777,-0.304473897
Brickfield Community Centre,Community centres,51.48245925,-0.314724534
Gunnersbury Close,Community centres,51.49222134,-0.273168882
Heston Farm,Community centres,51.48831064,-0.368805405
ROWE Community Centre,Community centres,51.47016839,-0.339171993
Brabazon Community Centre,Community centres,51.48150031,-0.395888943
Hogarth Meeting room ,Community centres,51.48806708,-0.256957026
Bedfont Lane Community Centre,Community centres,51.44871637,-0.414227695
The Bridgelink Centre,Community centres,51.45876035,-0.331737314
The Hub Community Centre,Community centres,51.47013035,-0.396359595
Convent Way Community Centre,Community centres,51.49541865,-0.394691848
Belvedere House,Community centres,51.44571805,-0.413422611
Hartlands Community Centre,Community centres,51.49075194,-0.408460758
Hunter House,Community centres,51.44643768,-0.414113904
Grassroots Community Centre,Community centres,51.52695254,0.008508494
Woodgrange Community Centre,Community centres,51.54847026,0.047111777
Paul Street Community Centre,Community centres,51.53814299,0.005190892
Vicarage Lane Community Centre,Community centres,51.5391402,0.010498118
Queens Road West Community Centre,Community centres,51.53287532,0.02546228
Trinity Community Centre,Community centres,51.51634132,0.015331392
Jack Cornwell Community Centre,Community centres,51.55247924,0.06210601
Jeyes Community Centre,Community centres,51.53074675,0.022181513
Chandos Community Centre,Community centres,51.51756134,0.011320629
Forest Lane Lodge,Community centres,51.54842771,0.016893135
Beckton Community Centre,Community centres,51.51032892,0.063185624
The Well Community Centre,Community centres,51.52703438,0.062859475
Old Town Hall,Community centres,51.54047431,0.001904506
Froud Centre,Community centres,51.55404545,0.055872949
Flanders Community Centre,Community centres,51.53067498,0.061409186
Ascot Community Centre,Community centres,51.51950341,0.011867451
Cundy Community Centre,Community centres,51.51285438,0.027182699
Woodman Community Centre,Community centres,51.50150131,0.067584873
Slade Centre,Community centres,51.47877782,0.08505665
Charlton House,Community centres,51.48067469,0.037132392
St Marys Community Centre,Community centres,51.4505783,0.057091237
Invicta Hall,Community centres,51.48671548,0.093520474
Knee Hill Community Hall,Community centres,51.48939304,0.121056358
Anstridge Community Hall,Community centres,51.44778136,0.082668097
Orchard Community Hall,Community centres,51.46900342,-0.013487556
Triangle Community Centre,Community centres,51.48712447,0.008452631
Coldharbour Hall,Community centres,51.43088886,0.058343532
Flintmill Meeting Rooms,Community centres,51.46444128,0.045951165
Woolwich Public Hall,Community centres,51.48975749,0.064622137
Barnfield HUb,Community centres,51.48052983,0.0718765
Flintmill Hall,Community centres,51.46447933,0.045863027
Woolwich Common Community Centre,Community centres,51.48030569,0.062449124
Lionel Road Community Hall,Community centres,51.45506217,0.039771302
Greenwich West Community and Arts Centre,Community centres,51.47727232,-0.016087402
Horn Park Community Centre,Community centres,51.44682907,0.026659241
Progress Hall,Community centres,51.45871619,0.051557105
Charlton Community Centre,Community centres,51.4818984,0.038504662
C2K Community Centre,Community centres,51.49318651,0.109089335
Glyndon Community Centre,Community centres,51.48639552,0.07762917
Middle Park Community Centre and the Joan Currie Hall,Community centres,51.44570578,0.038909983
Clockhouse Community Centre,Community centres,51.49391217,0.05320929
One Space Kidbrooke,Community centres,51.45932784,0.02725585
New Charlton Community Centre,Community centres,51.48909068,0.047115251
Mycenae House,Community centres,51.47964213,0.015991887
Shrewsbury House,Community centres,51.47352715,0.072997227
The Eagle Community Centre,Community centres,51.37426987,-0.105260801
Coulsdon Community Centre,Community centres,51.32002824,-0.147694607
Shirley Community Centre,Community centres,51.36906636,-0.030766608
Selsdon Community Centre,Community centres,51.34239125,-0.06245136
Kenley Memorial Home,Community centres,51.32514611,-0.099419723
Polish Community Centre,Community centres,51.39883261,-0.077333462
Forestdale Residents Association,Community centres,51.34656084,-0.042258059
Stanley Halls,Community centres,51.40025604,-0.075304115
Croydon Irish Centre,Community centres,51.35041237,-0.051586242
Phoenix Community Centre,Community centres,51.41742577,-0.082047075
Sanderstead Parish Halls,Community centres,51.34515629,-0.0944997
Whytecliffe Community Space,Community centres,51.33905865,-0.113359993
The Sundial Centre,Community centres,51.53014474,-0.070190485
Butley Court Senior Citizens Centre,Community centres,51.53339544,-0.034665662
Tredegar Community Centre,Community centres,51.53024182,-0.024164653
Lascar Wharf Community Centre,Community centres,51.51486388,-0.035195058
Phoenix Heights Community Centre,Community centres,51.50029718,-0.021764669
Flower and Dean Community Centre,Community centres,51.51775875,-0.072184594
Bede Community Centre,Community centres,51.52061478,-0.029920656
Southern Grove Community Centre,Community centres,51.52403336,-0.031132721
The Centre,Community centres,51.52535156,-0.026942528
St Hilda's East Community Centre,Community centres,51.5250752,-0.074153188
Brady Arts and Community Centre,Community centres,51.51941799,-0.065368541
Francis Lee Community Centre,Community centres,51.53657473,-0.0307109
Cedar Centre,Community centres,51.493295,-0.022604515
Kingsley Hall Community Centre,Community centres,51.52662389,-0.014402679
Saint John's Community Centre,Community centres,51.49527111,-0.012078314
Island House Community Centre,Community centres,51.49848265,-0.010022248
Devons Estate TRA,Community centres,51.52605387,-0.014196821
Hind Grove Community Hall,Community centres,51.51281726,-0.024831638
Tab Centre,Community centres,51.52741191,-0.075931759
Brady Arts and Community Centre,Community centres,51.51941799,-0.065368541
Spotlight Centre,Community centres,51.51544311,-0.011588591
St Paul's Way Community Centre,Community centres,51.51809777,-0.027011045
Teviot Centre,Community centres,51.51863265,-0.013600751
Linc Centre,Community centres,51.52137691,-0.020541167
Bromley by Bow Centre,Community centres,51.52717901,-0.01319635
Trussler Community Hall,Community centres,51.51194819,-0.016035675
St Peters North Community Centre,Community centres,51.53364438,-0.062111968
Hanbury Street Community Room,Community centres,51.51988257,-0.066819129
Portsoken Health & Community Centre,Community centres,51.51342095,-0.062711449
St John's TRA Office ,Community centres,51.49627861,-0.012684768
Virginia Quays Community Centre,Community centres,51.50905536,-0.000856892
SocietyLinks,Community centres,51.51047462,-0.069451425
Aberfeldy Community Centre,Community centres,51.51399397,-0.006218174
Poplar Union,Community centres,51.51559973,-0.022982608
The Cabin Community Centre,Community centres,51.51365117,-0.009331855
Selby Street Community Centre,Community centres,51.52174565,-0.062559788
Fieldgate Mansion Community Centre,Community centres,51.5166282,-0.063065348
Tarling East Community Centre Main Hall,Community centres,51.51226826,-0.054798818
Wodeham Gardens Community Room,Community centres,51.51953365,-0.063114981
Cable Street Pensioners Club Room,Community centres,51.51169012,-0.049439436
Zander Court Club Room,Community centres,51.52991364,-0.063813197
Minerva Community Centre Main Hall,Community centres,51.5313379,-0.059672376
Woodheyes,Community centres,51.55134633,-0.256678866
Unity Centre,Community centres,51.54434828,-0.253528496
The Stonebridge Hub,Community centres,51.54150653,-0.260790233
Pakistan Community Centre (Pakistan Welfare Association),Community centres,51.55009336,-0.224676969
Preston and Mall,Community centres,51.57760526,-0.28793082
Kings Hall,Community centres,51.54466413,-0.234363641
The Granville Plus Centre,Community centres,51.53276318,-0.197452297
Dudden Hill Community Centre,Community centres,51.54939556,-0.239243091
The Tabot Centre,Community centres,51.53297984,-0.198092561
Chalkhill Community Centre,Community centres,51.56389605,-0.276528244
The Vale Community Centre,Community centres,51.53176586,-0.196338274
Marian Community Centre,Community centres,51.53096657,-0.195822008
KSL Hall,Community centres,51.54251954,-0.285642657
The Bridgestone Arena,Community centres,51.54106606,-0.266272574
The Granville,Community centres,51.53272046,-0.197598169
St Kitts and Nevis,Community centres,51.56443743,-0.243264381
Gladstone Youth and Community Centre,Community centres,51.55530536,-0.229191154
Donnington Court Community Room,Community centres,51.54232305,-0.232968917
Mulberry Court Community Centre,Community centres,51.54887346,-0.260321636
Hawthorn Community Hall,Community centres,51.42521831,-0.159166575
St. James Centre,Community centres,51.44230497,-0.161472814
R.O.S.E Clubroom,Community centres,51.47771895,-0.140982917
Penfold Centre,Community centres,51.45532797,-0.195150105
Tooting Grove Community Clubhouse,Community centres,51.42640277,-0.172223721
Brookside Community Centre,Community centres,51.46279031,-0.250238056
Open Door Community Centre,Community centres,51.44879712,-0.216175107
Focus Hall,Community centres,51.45079464,-0.24967463
Aboyne Community Clubroom,Community centres,51.43470294,-0.180884765
Civic Suite,Community centres,51.45699182,-0.191658569
Horne Way Community Clubroom,Community centres,51.47064801,-0.226755834
Park Court Clubroom (The Venue),Community centres,51.47527038,-0.14934816
Ackroydon Community Clubroom,Community centres,51.44684216,-0.218309201
Kambala Community Clubroom,Community centres,51.46901454,-0.173631871
Wilditch Centre,Community centres,51.47178853,-0.159525189
Chatham Hall,Community centres,51.45506644,-0.16553755
Boyd Court Clubroom,Community centres,51.45395736,-0.227934947
Alton Community Centre,Community centres,51.44710736,-0.23824507
Fitzhugh Grove Community Room,Community centres,51.45313435,-0.176582753
Minstead Gardens Christian Community Centre,Community centres,51.4517687,-0.249263187
Ethelburga Community Clubroom,Community centres,51.47748574,-0.166150903
York Gardens Library and Community Centre,Community centres,51.46722566,-0.177720211
Balham Community Centre,Community centres,51.44159,-0.148608305
St John's Hill Community Centre,Community centres,51.46161128,-0.171753452
Sycamores Centre,Community centres,51.45824252,-0.195207896
Henry Prince Estate Community Clubroom,Community centres,51.44473347,-0.190415888
Pennethorne House Meeting Room,Community centres,51.46790182,-0.176095122
